SALE TYPE,SOLD DATE,PROPERTY TYPE,ADDRESS,CITY,STATE OR PROVINCE,ZIP OR POSTAL CODE,PRICE,BEDS,BATHS,LOCATION,SQUARE FEET,LOT SIZE,YEAR BUILT,DAYS ON MARKET,$/SQUARE FEET,HOA/MONTH,STATUS,NEXT OPEN HOUSE START TIME,NEXT OPEN HOUSE END TIME,URL (SEE http://www.redfin.com/buy-a-home/comparative-market-analysis FOR INFO ON PRICING),SOURCE,MLS#,FAVORITE,INTERESTED,LATITUDE,LONGITUDE
MLS Listing,,Condo/Co-op,1584 48th Ave Unit A,San Francisco,CA,94122,895000,1,1.0,San Francisco,739,2675,1973,1,1211,200,Active,,,http://www.redfin.com/CA/San-Francisco/1584-48th-Ave-94122/unit-A/home/175131708,San Francisco MLS,421548664,N,Y,37.7569033,-122.507582
MLS Listing,,Single Family Residential,1461 Kansas St,San Francisco,CA,94107,1095000,2,1.0,San Francisco,946,2500,,1,1158,,Active,,,http://www.redfin.com/CA/San-Francisco/1461-Kansas-St-94107/home/738988,San Francisco MLS,421547622,N,Y,37.751169,-122.401927
MLS Listing,,Multi-Family (2-4 Unit),1527 - 1529 12th Ave,San Francisco,CA,94122,1798000,6,2.5,San Francisco,2400,2996,1946,2,749,,Active,,,http://www.redfin.com/CA/San-Francisco/1527-12th-Ave-94122/home/1595972,San Francisco MLS,421547307,N,Y,37.7596008,-122.469552
MLS Listing,,Condo/Co-op,250 King St #1214,San Francisco,CA,94107,869000,1,1.0,San Francisco,962,213232,2004,7,903,862,Active,,,http://www.redfin.com/CA/San-Francisco/250-King-St-94107/unit-1214/home/12401997,San Francisco MLS,421545142,N,Y,37.7781222,-122.3932903
MLS Listing,,Single Family Residential,2037 14th Ave,SAN FRANCISCO,CA,94116,1399000,2,1.0,SAN FRANCISCO,1075,2068,1947,8,1301,,Active,,,http://www.redfin.com/CA/San-Francisco/2037-14th-Ave-94116/home/649465,MLSListings,ML81842407,N,Y,37.7500531,-122.4711598
MLS Listing,,Single Family Residential,1403 Hudson Ave,San Francisco,CA,94124,1998000,4,2.5,San Francisco,3282,3424,2007,8,609,,Active,,,http://www.redfin.com/CA/San-Francisco/1403-Hudson-Ave-94124/home/21967406,San Francisco MLS,421543439,N,Y,37.737751,-122.384753
MLS Listing,,Condo/Co-op,388 Fulton St #405,SAN FRANCISCO,CA,94102,898000,2,1.0,SAN FRANCISCO,720,,2016,9,1247,639,Active,,,http://www.redfin.com/CA/San-Francisco/388-Fulton-St-94102/unit-405/home/105419644,MLSListings,ML81842102,N,Y,37.7790326,-122.4231449
MLS Listing,,Condo/Co-op,248 Myrtle St,San Francisco,CA,94109,875000,2,1.0,San Francisco,975,3828,1900,10,897,461,Active,,,http://www.redfin.com/CA/San-Francisco/248-Myrtle-St-94109/home/1491675,San Francisco MLS,421544867,N,Y,37.7852487,-122.4221514
MLS Listing,,Single Family Residential,4353 17th St,San Francisco,CA,94114,899000,1,1.0,San Francisco,685,1123,1909,10,1312,,Active,,,http://www.redfin.com/CA/San-Francisco/4353-17th-St-94114/home/1299551,San Francisco MLS,421544792,N,Y,37.7619358,-122.4417445
MLS Listing,,Condo/Co-op,1268 Dolores St,SAN FRANCISCO,CA,94110,1389000,2,2.0,SAN FRANCISCO,1267,2473,2012,12,1096,232,Active,,,http://www.redfin.com/CA/San-Francisco/1268-Dolores-St-94110/home/40454946,MLSListings,ML81841792,N,Y,37.7490964,-122.4252083
MLS Listing,,Multi-Family (2-4 Unit),82 Landers St,San Francisco,CA,94114,2395000,3,3.0,San Francisco,2117,3125,1903,46,1131,,Active,,,http://www.redfin.com/CA/San-Francisco/82-Landers-St-94114/home/1093547,San Francisco MLS,421532622,N,Y,37.7665349,-122.4280219
MLS Listing,,Single Family Residential,542 Rhode Island St,San Francisco,CA,94107,2398000,3,2.0,San Francisco,,2500,1938,48,,,Active,,,http://www.redfin.com/CA/San-Francisco/542-Rhode-Island-St-94107/home/727244,San Francisco MLS,421531300,N,Y,37.7628828,-122.4026251
MLS Listing,,Condo/Co-op,5800 3Rd St #1211,San Francisco,CA,94124,680000,1,1.0,Portola District,817,,2010,83,832,432,Active,,,http://www.redfin.com/CA/San-Francisco/5800-3rd-St-94124/unit-1211/home/40625857,"bridgeMLS, Bay East AOR, or Contra Costa AOR",40938478,N,Y,37.7253452,-122.3948096
MLS Listing,,Condo/Co-op,855 Folsom St #510,San Francisco,CA,94107,930000,1,1.5,San Francisco,1030,55687,2001,86,903,722,Active,,,http://www.redfin.com/CA/San-Francisco/855-Folsom-St-94107/unit-510/home/12398153,San Francisco MLS,421520348,N,Y,37.7808956,-122.4019503
Redfin Data,,Condo/Co-op,2189 Market St #7,San Francisco,CA,94114,975000,2,1.0,San Francisco,770,,2002,3,1266,611,Pre On-Market,,,http://www.redfin.com/CA/San-Francisco/2189-Market-St-94114/unit-7/home/1528790,Coming Soon,70745,N,Y,37.7658753,-122.4306438
MLS Listing,,Condo/Co-op,1621 Dolores St,San Francisco,CA,94110,1149000,2,1.0,San Francisco,1234,2187,1905,1,931,400,Active,,,http://www.redfin.com/CA/San-Francisco/1621-Dolores-St-94110/home/848498,San Francisco MLS,421548783,N,Y,37.743457,-122.423987
MLS Listing,,Condo/Co-op,960 Wisconsin St,San Francisco,CA,94107,1349000,2,2.0,San Francisco,1071,2511,1914,1,1260,350,Active,,,http://www.redfin.com/CA/San-Francisco/960-Wisconsin-St-94107/home/12277299,San Francisco MLS,421548648,N,Y,37.7552842,-122.3989964
MLS Listing,,Condo/Co-op,255 Berry St #413,San Francisco,CA,94158,1150000,2,2.0,San Francisco,1050,42959,2004,1,1095,848,Active,,,http://www.redfin.com/CA/San-Francisco/255-Berry-St-94158/unit-413/home/959470,San Francisco MLS,421547975,N,Y,37.7743869,-122.3947812
MLS Listing,,Condo/Co-op,555 Golden Gate Ave Unit 5C,San Francisco,CA,94102,899000,2,1.0,San Francisco,834,,2021,1,1078,613,Active,,,http://www.redfin.com/CA/San-Francisco/555-Golden-Gate-Ave-94102/unit-5C/home/175126440,San Francisco MLS,421548370,N,Y,37.7808655,-122.4196054
MLS Listing,,Condo/Co-op,300 3rd St #311,San Francisco,CA,94107,979000,1,1.0,San Francisco,1000,48941,1990,1,979,766,Active,,,http://www.redfin.com/CA/San-Francisco/300-3rd-St-94107/unit-311/home/945721,San Francisco MLS,421544186,N,Y,37.7835658,-122.3989483
MLS Listing,,Single Family Residential,109 Los Palmos Dr,San Francisco,CA,94127,1375000,3,2.0,San Francisco,1475,2909,,1,932,,Active,,,http://www.redfin.com/CA/San-Francisco/109-Los-Palmos-Dr-94127/home/1911400,San Francisco MLS,421548324,N,Y,37.7354229,-122.4479826
MLS Listing,,Condo/Co-op,1800 Washington St #219,San Francisco,CA,94109,1299000,2,2.0,San Francisco,800,38432,,1,1624,829,Active,,,http://www.redfin.com/CA/San-Francisco/1800-Washington-St-94109/unit-219/home/851430,San Francisco MLS,421544110,N,Y,37.7932007,-122.4233328
MLS Listing,,Condo/Co-op,746 - 748 Clipper St #748,San Francisco,CA,94114,1549000,3,2.5,San Francisco,1938,2463,1976,1,799,247,Active,,,http://www.redfin.com/CA/San-Francisco/746-Clipper-St-94114/unit-748/home/175123561,San Francisco MLS,421548663,N,Y,37.748813,-122.441448
MLS Listing,,Single Family Residential,292 Gold Mine Dr,San Francisco,CA,94131,1495000,4,3.0,San Francisco,2666,3449,1968,1,561,,Active,,,http://www.redfin.com/CA/San-Francisco/292-Gold-Mine-Dr-94131/home/968209,San Francisco MLS,421548092,N,Y,37.7406702,-122.4388721
MLS Listing,,Single Family Residential,512 Brussels St,San Francisco,CA,94134,1099000,3,2.0,San Francisco,1788,2250,1953,1,615,,Active,,,http://www.redfin.com/CA/San-Francisco/512-Brussels-St-94134/home/1981592,San Francisco MLS,421548149,N,Y,37.7256388,-122.4052136
MLS Listing,,Single Family Residential,6524 Fulton St,San Francisco,CA,94121,1598000,5,3.0,San Francisco,2055,2500,1923,1,778,,Active,,,http://www.redfin.com/CA/San-Francisco/6524-Fulton-St-94121/home/1500154,San Francisco MLS,421539987,N,Y,37.7719719,-122.5018615
MLS Listing,,Single Family Residential,275 Santa Rosa Ave,San Francisco,CA,94112,1860000,5,5.0,San Francisco,2269,4373,1911,1,820,,Active,,,http://www.redfin.com/CA/San-Francisco/275-Santa-Rosa-Ave-94112/home/1980767,San Francisco MLS,421548419,N,Y,37.728414,-122.4397182
MLS Listing,,Single Family Residential,875 North Point St,San Francisco,CA,94109,2995000,3,1.0,San Francisco,,3436,1927,1,,,Active,,,http://www.redfin.com/CA/San-Francisco/875-N-Point-St-94109/home/537436,San Francisco MLS,421547082,N,Y,37.8054187,-122.4215504
MLS Listing,,Condo/Co-op,1450 Greenwich St #103,San Francisco,CA,94109,1195000,1,1.0,San Francisco,900,9273,1928,1,1328,764,Active,,,http://www.redfin.com/CA/San-Francisco/1450-Greenwich-St-94109/unit-103/home/1059493,San Francisco MLS,421548600,N,Y,37.800756,-122.423558
MLS Listing,,Condo/Co-op,1180 Eddy St Unit B,San Francisco,CA,94109,849999,2,2.0,San Francisco,816,2575,1992,1,1042,398,Active,,,http://www.redfin.com/CA/San-Francisco/1180-Eddy-St-94109/unit-B/home/1926432,San Francisco MLS,421548574,N,Y,37.7822647,-122.4270935
MLS Listing,,Condo/Co-op,895 Hayes St,San Francisco,CA,94117,1795000,3,2.5,San Francisco,2059,1575,2009,1,872,330,Active,,,http://www.redfin.com/CA/San-Francisco/895-Hayes-St-94117/home/21516752,San Francisco MLS,421548297,N,Y,37.7757911,-122.4310029
MLS Listing,,Condo/Co-op,1688 Pine St Unit W1108,San Francisco,CA,94109,1475000,2,2.0,San Francisco,1068,35482,2016,1,1381,803,Active,,,http://www.redfin.com/CA/San-Francisco/1688-Pine-St-94109/unit-W1108/home/96414596,San Francisco MLS,421545254,N,Y,37.7895497,-122.4233697
MLS Listing,,Multi-Family (2-4 Unit),1550 - 1552 Hampshire St,San Francisco,CA,94110,1949000,3,,San Francisco,2575,,1903,1,757,,Active,,,http://www.redfin.com/CA/San-Francisco/1550-Hampshire-St-94110/home/1695764,San Francisco MLS,421545196,N,Y,37.7480543,-122.4065856
MLS Listing,,Condo/Co-op,4543 - A 18th St,San Francisco,CA,94114,1149000,2,1.0,San Francisco,1150,3023,1904,1,999,350,Active,,,http://www.redfin.com/CA/San-Francisco/4543A-18th-St-94114/home/143851492,San Francisco MLS,421547852,N,Y,37.7603757,-122.440349
MLS Listing,,Condo/Co-op,3037 22nd St Unit A,San Francisco,CA,94110,1049000,2,2.0,San Francisco,,1750,2002,1,,391,Active,,,http://www.redfin.com/CA/San-Francisco/3037-22nd-St-94110/unit-A/home/918222,San Francisco MLS,421547822,N,Y,37.7554706,-122.4152029
MLS Listing,,Single Family Residential,130 Maywood Dr,San Francisco,CA,94127,1685000,4,2.5,San Francisco,2572,3192,1937,1,655,,Active,,,http://www.redfin.com/CA/San-Francisco/130-Maywood-Dr-94127/home/954907,San Francisco MLS,421548017,N,Y,37.7342436,-122.462536
MLS Listing,,Single Family Residential,828 Niagara Ave,San Francisco,CA,94112,759000,3,2.0,San Francisco,1455,2156,1925,1,522,,Active,,,http://www.redfin.com/CA/San-Francisco/828-Niagara-Ave-94112/home/1046365,San Francisco MLS,421544699,N,Y,37.7211672,-122.4513017
MLS Listing,,Single Family Residential,582 40th Ave,San Francisco,CA,94121,1499000,3,2.0,San Francisco,1225,2060,1924,1,1224,,Active,,,http://www.redfin.com/CA/San-Francisco/582-40th-Ave-94121/home/1920983,San Francisco MLS,421548496,N,Y,37.777796,-122.5004312
MLS Listing,,Single Family Residential,381 Holyoke St,San Francisco,CA,94134,1095000,4,2.5,San Francisco,1945,1750,1936,1,563,,Active,,,http://www.redfin.com/CA/San-Francisco/381-Holyoke-St-94134/home/1282745,San Francisco MLS,421547775,N,Y,37.726577,-122.408422
MLS Listing,,Single Family Residential,2550 22nd Ave,San Francisco,CA,94116,1995000,4,2.5,San Francisco,2484,3598,1926,1,803,,Active,,,http://www.redfin.com/CA/San-Francisco/2550-22nd-Ave-94116/home/1111674,San Francisco MLS,421529868,N,Y,37.7400997,-122.4784563
MLS Listing,,Condo/Co-op,2829 25th St #3,San Francisco,CA,94110,1649000,3,2.5,San Francisco,1464,,1900,1,1126,522,Active,,,http://www.redfin.com/CA/San-Francisco/2829-25th-St-94110/unit-3/home/173284075,San Francisco MLS,421547831,N,Y,37.7510579,-122.4067261
MLS Listing,,Condo/Co-op,177 Townsend St #436,San Francisco,CA,94107,849000,1,1.0,San Francisco,755,42969,2007,1,1125,732,Active,,,http://www.redfin.com/CA/San-Francisco/177-Townsend-St-94107/unit-436/home/17304699,San Francisco MLS,421544209,N,Y,37.7791526,-122.3919931
MLS Listing,,Single Family Residential,3321 Pierce St,San Francisco,CA,94123,3195000,3,3.0,San Francisco,2789,2500,1924,1,1146,,Active,,,http://www.redfin.com/CA/San-Francisco/3321-Pierce-St-94123/home/559929,BAREIS,421540261,N,Y,37.8007336,-122.4397569
MLS Listing,,Single Family Residential,651 Noe St,San Francisco,CA,94114,1795000,3,2.0,San Francisco,1691,2395,1906,1,1062,,Active,,,http://www.redfin.com/CA/San-Francisco/651-Noe-St-94114/home/711038,San Francisco MLS,421545629,N,Y,37.758437,-122.43227
MLS Listing,,Condo/Co-op,601 Van Ness Ave #51,San Francisco,CA,94102,849000,2,2.0,San Francisco,1037,105806,1982,1,819,1130,Active,,,http://www.redfin.com/CA/San-Francisco/601-Van-Ness-Ave-94102/unit-51/home/1804311,San Francisco MLS,421548433,N,Y,37.7813653,-122.4215253
MLS Listing,,Condo/Co-op,110 Channel St #626,San Francisco,CA,94158,1088000,1,1.0,San Francisco,835,49773,2018,1,1303,852,Active,,,http://www.redfin.com/CA/San-Francisco/110-Channel-St-94158/unit-626/home/167383041,San Francisco MLS,421538144,N,Y,37.7751436,-122.3906212
MLS Listing,,Condo/Co-op,1688 Pine St Unit WPH01,San Francisco,CA,94109,2499000,2,2.5,San Francisco,1427,35482,2016,1,1751,856,Active,,,http://www.redfin.com/CA/San-Francisco/1688-Pine-St-94109/unit-WPH01/home/102902602,San Francisco MLS,421547781,N,Y,37.7895497,-122.4233697
MLS Listing,,Condo/Co-op,1470 Golden Gate Ave #4,San Francisco,CA,94115,1198000,2,2.0,San Francisco,1276,5500,1988,1,939,350,Active,,,http://www.redfin.com/CA/San-Francisco/1470-Golden-Gate-Ave-94115/unit-4/home/148070671,San Francisco MLS,421548214,N,Y,37.7794012,-122.4347523
MLS Listing,,Condo/Co-op,152 Lombard St #401,San Francisco,CA,94111,999995,2,2.0,San Francisco,1112,,,1,899,1122,Active,,,http://www.redfin.com/CA/San-Francisco/152-Lombard-St-94111/unit-401/home/541541,San Francisco MLS,421547637,N,Y,37.80445,-122.404178
MLS Listing,,Single Family Residential,80 Molimo Dr,San Francisco,CA,94127,1095000,2,1.0,San Francisco,1000,2635,,1,1095,,Active,,,http://www.redfin.com/CA/San-Francisco/80-Molimo-Dr-94127/home/1750574,San Francisco MLS,421548009,N,Y,37.7372789,-122.4473096
MLS Listing,,Single Family Residential,2049 15th Ave,SAN FRANCISCO,CA,94116,1888888,3,1.0,SAN FRANCISCO,1890,3953,1939,1,999,,Active,,,http://www.redfin.com/CA/San-Francisco/2049-15th-Ave-94116/home/649513,MLSListings,ML81843655,N,Y,37.7497671,-122.4720885
MLS Listing,,Condo/Co-op,151 Alice B. Toklas Pl #503,San Francisco,CA,94109,950000,1,1.0,San Francisco,989,25240,1920,1,961,899,Active,,,http://www.redfin.com/CA/San-Francisco/151-Alice-B-Toklas-94109/unit-503/home/1942355,San Francisco MLS,421548072,N,Y,37.7850997,-122.4205869
MLS Listing,,Single Family Residential,55 San Fernando Way,San Francisco,CA,94127,3925000,5,4.5,San Francisco,3670,5000,1920,1,1069,197,Active,,,http://www.redfin.com/CA/San-Francisco/55-San-Fernando-Way-94127/home/1662081,San Francisco MLS,421546138,N,Y,37.7354564,-122.4694793
MLS Listing,,Condo/Co-op,1747 - 1749 Dolores,San Francisco,CA,94110,3144000,5,5.5,San Francisco,3155,1729,,1,997,400,Active,,,http://www.redfin.com/CA/San-Francisco/1747-Dolores-St-94110/home/1856895,San Francisco MLS,421548344,N,Y,37.7416941,-122.4239191
MLS Listing,,Single Family Residential,257 Pacheco,San Francisco,CA,94116,1998000,3,1.5,San Francisco,2275,2610,,1,878,,Active,,,http://www.redfin.com/CA/San-Francisco/257-Pacheco-St-94116/home/1421474,San Francisco MLS,421533137,N,Y,37.7470482,-122.4621822
MLS Listing,,Condo/Co-op,631 Ofarrell St #910,San Francisco,CA,94109,469000,0,1.0,San Francisco,520,,1930,1,902,609,Active,,,http://www.redfin.com/CA/San-Francisco/631-O-Farrell-St-94109/unit-910/home/1049422,San Francisco MLS,421548345,N,Y,37.7852037,-122.4151808
MLS Listing,,Condo/Co-op,74 Levant St,San Francisco,CA,94114,1250000,3,2.0,San Francisco,2019,2981,1981,1,619,,Active,,,http://www.redfin.com/CA/San-Francisco/74-Levant-St-94114/unit-74/home/1517516,San Francisco MLS,421542708,N,Y,37.763794,-122.442271
MLS Listing,,Condo/Co-op,1080 Sutter St #403,San Francisco,CA,94109,940000,2,1.0,San Francisco,750,7000,2014,1,1253,736,Active,,,http://www.redfin.com/CA/San-Francisco/1080-Sutter-St-94109/unit-403/home/69054922,San Francisco MLS,421543515,N,Y,37.788251,-122.418101
MLS Listing,,Condo/Co-op,45 Bartlett St #807,San Francisco,CA,94110,1439000,2,2.0,San Francisco,1007,23803,2014,1,1429,751,Active,,,http://www.redfin.com/CA/San-Francisco/45-Bartlett-St-94110/unit-807/home/109278537,San Francisco MLS,421547083,N,Y,37.7558162,-122.4197494
MLS Listing,,Townhouse,2779 Folsom St #2,San Francisco,CA,94110,2395000,3,3.5,San Francisco,2206,8260,,1,1086,701,Active,,,http://www.redfin.com/CA/San-Francisco/2779-Folsom-St-94110/unit-2/home/175117934,San Francisco MLS,421544970,N,Y,37.752965,-122.413713
MLS Listing,,Condo/Co-op,20 Belvedere St,San Francisco,CA,94117,1195000,3,1.5,San Francisco,1474,1881,1910,1,811,250,Active,,,http://www.redfin.com/CA/San-Francisco/20-Belvedere-St-94117/home/110052380,San Francisco MLS,421548315,N,Y,37.769361,-122.44934
MLS Listing,,Condo/Co-op,2250 24th St #129,San Francisco,CA,94107,799000,2,2.0,San Francisco,1028,,1989,1,777,628,Active,,,http://www.redfin.com/CA/San-Francisco/2250-24th-St-94107/unit-129/home/737425,San Francisco MLS,421526244,N,Y,37.7533831,-122.4021236
MLS Listing,,Single Family Residential,289 Douglass St,San Francisco,CA,94114,2349000,4,2.5,San Francisco,2275,1990,1914,1,1033,,Active,,,http://www.redfin.com/CA/San-Francisco/289-Douglass-St-94114/home/677393,San Francisco MLS,421547972,N,Y,37.7593035,-122.4390095
MLS Listing,,Condo/Co-op,589 Sanchez St,San Francisco,CA,94114,1495000,3,2.0,San Francisco,2015,2500,1907,1,742,418,Active,,,http://www.redfin.com/CA/San-Francisco/589-Sanchez-St-94114/home/28939109,San Francisco MLS,421547361,N,Y,37.759775,-122.430125
MLS Listing,,Single Family Residential,1913 Vallejo St,San Francisco,CA,94123,3795000,3,3.5,San Francisco,2500,2712,1997,1,1518,,Active,,,http://www.redfin.com/CA/San-Francisco/1913-Vallejo-St-94123/home/12354354,San Francisco MLS,421547947,N,Y,37.795818,-122.4293005
MLS Listing,,Condo/Co-op,107 19th Ave,San Francisco,CA,94121,1295000,2,2.0,San Francisco,1125,3250,1921,1,1151,250,Active,,,http://www.redfin.com/CA/San-Francisco/107-19th-Ave-94121/home/12277118,San Francisco MLS,421547974,N,Y,37.7857907,-122.4788961
MLS Listing,,Condo/Co-op,520 Natoma St #11,San Francisco,CA,94103,369000,0,1.0,San Francisco,347,2614,1911,1,1063,404,Active,,,http://www.redfin.com/CA/San-Francisco/520-Natoma-St-94103/unit-11/home/172079691,San Francisco MLS,421533512,N,Y,37.779856,-122.4083003
MLS Listing,,Condo/Co-op,888 San Jose Ave,San Francisco,CA,94110,949000,2,2.0,San Francisco,1040,1729,,1,913,200,Active,,,http://www.redfin.com/CA/San-Francisco/888-San-Jose-Ave-94110/home/175117257,San Francisco MLS,421548247,N,Y,37.7413342,-122.4239474
MLS Listing,,Condo/Co-op,1749 Dolores St,San Francisco,CA,94110,2195000,3,3.5,San Francisco,2115,1729,1910,1,1038,400,Active,,,http://www.redfin.com/CA/San-Francisco/1749-Dolores-St-94110/home/1972031,San Francisco MLS,421545135,N,Y,37.7416332,-122.4238749
MLS Listing,,Condo/Co-op,3557 23rd St,SAN FRANCISCO,CA,94110,1198000,3,1.0,SAN FRANCISCO,1400,,1910,1,856,1,Active,,,http://www.redfin.com/CA/San-Francisco/3557-23rd-St-94110/home/17305532,MLSListings,ML81843584,N,Y,37.7534124,-122.4225307
MLS Listing,,Single Family Residential,3315 - Pierce West Pierce St,San Francisco,CA,94109,2895000,3,3.0,San Francisco,2255,2500,1925,1,1284,,Active,,,http://www.redfin.com/CA/San-Francisco/3315-Pierce-Pierce-St-Unknown/home/175117099,San Francisco MLS,421540918,N,Y,37.7870018,-122.4368478
MLS Listing,,Single Family Residential,547 Sawyer St,SAN FRANCISCO,CA,94134,798000,3,2.0,SAN FRANCISCO,1235,2575,1947,1,646,,Active,,,http://www.redfin.com/CA/San-Francisco/547-Sawyer-St-94134/home/1923048,MLSListings,ML81843566,N,Y,37.7106531,-122.4153246
MLS Listing,,Condo/Co-op,2444 Van Ness Ave #3,San Francisco,CA,94109,2195000,3,3.0,San Francisco,,,,1,,750,Active,,,http://www.redfin.com/CA/San-Francisco/2444-Van-Ness-Ave-94109/unit-3/home/1491266,San Francisco MLS,421548108,N,Y,37.7982325,-122.4237091
MLS Listing,,Condo/Co-op,2444 Van Ness Ave #1,San Francisco,CA,94109,2195000,3,3.0,San Francisco,,,,1,,750,Active,,,http://www.redfin.com/CA/San-Francisco/2444-Van-Ness-Ave-94109/unit-1/home/1227077,San Francisco MLS,421548107,N,Y,37.7982325,-122.4237091
MLS Listing,,Condo/Co-op,2444 Van Ness Ave #4,San Francisco,CA,94109,2195000,3,3.0,San Francisco,,,,1,,750,Active,,,http://www.redfin.com/CA/San-Francisco/2444-Van-Ness-Ave-94109/unit-4/home/1952946,San Francisco MLS,421548106,N,Y,37.7982325,-122.4237091
MLS Listing,,Condo/Co-op,2444 Van Ness Ave #2,San Francisco,CA,94109,2220000,3,3.0,San Francisco,,,,1,,750,Active,,,http://www.redfin.com/CA/San-Francisco/2444-Van-Ness-Ave-94109/unit-2/home/901443,San Francisco MLS,421548109,N,Y,37.7982325,-122.4237091
MLS Listing,,Condo/Co-op,2444 Van Ness Ave Ph 6,San Francisco,CA,94109,2395000,3,3.0,San Francisco,,,,1,,750,Active,,,http://www.redfin.com/CA/San-Francisco/2444-Van-Ness-Ave-94109/unit-6/home/564137,San Francisco MLS,421548110,N,Y,37.7982325,-122.4237091
MLS Listing,,Condo/Co-op,818 Van Ness Ave #802,San Francisco,CA,94109,1349000,2,2.0,San Francisco,1128,9810,2008,1,1196,708,Active,,,http://www.redfin.com/CA/San-Francisco/818-Van-Ness-Ave-94109/unit-802/home/40138179,San Francisco MLS,421540451,N,Y,37.783203,-122.4205684
MLS Listing,,Condo/Co-op,2444 Van Ness Ave Ph 5,San Francisco,CA,94109,2345000,3,3.0,San Francisco,,,,1,,750,Active,,,http://www.redfin.com/CA/San-Francisco/2444-Van-Ness-Ave-94109/unit-5/home/2020810,San Francisco MLS,421548111,N,Y,37.7982325,-122.4237091
MLS Listing,,Condo/Co-op,131 Divisadero St,San Francisco,CA,94117,1695000,2,2.0,San Francisco,1754,9517,1995,1,966,547,Active,,,http://www.redfin.com/CA/San-Francisco/131-Divisadero-St-94117/home/1146273,San Francisco MLS,421548096,N,Y,37.7694943,-122.4368213
MLS Listing,,Single Family Residential,57 Santa Cruz Ave,San Francisco,CA,94112,949999,2,2.0,Ingleside Terr,975,2352,1952,1,974,,Active,,,http://www.redfin.com/CA/San-Francisco/57-Santa-Cruz-Ave-94112/home/1105517,"bridgeMLS, Bay East AOR, or Contra Costa AOR",40949598,N,Y,37.708733,-122.4655444
MLS Listing,,Condo/Co-op,188 27th St,San Francisco,CA,94110,1049000,2,1.0,San Francisco,1193,,1908,1,879,,Active,,,http://www.redfin.com/CA/San-Francisco/188-27th-St-94110/unit-188/home/164675816,BAREIS,421547317,N,Y,37.7472248,-122.4242849
MLS Listing,,Condo/Co-op,1650 Jackson St #807,San Francisco,CA,94109,899000,1,1.0,San Francisco,845,14631,1991,1,1064,879,Active,,,http://www.redfin.com/CA/San-Francisco/1650-Jackson-St-94109/unit-807/home/566475,San Francisco MLS,421547308,N,Y,37.7942661,-122.42226
MLS Listing,,Condo/Co-op,361 24th Ave #1,San Francisco,CA,94121,899950,2,1.0,San Francisco,800,3000,1992,1,1125,150,Active,,,http://www.redfin.com/CA/San-Francisco/361-24th-Ave-94121/unit-1/home/1484389,San Francisco MLS,421542206,N,Y,37.7827391,-122.4841605
MLS Listing,,Single Family Residential,3318 Quintara St,San Francisco,CA,94116,1095000,3,3.0,San Francisco,1350,1873,1947,1,811,,Active,,,http://www.redfin.com/CA/San-Francisco/3318-Quintara-St-94116/home/1211308,San Francisco MLS,421547144,N,Y,37.7477405,-122.5011866
MLS Listing,,Single Family Residential,1914 Funston Ave,SAN FRANCISCO,CA,94116,1988000,4,3.0,SAN FRANCISCO,2127,3223,1949,1,935,,Active,,,http://www.redfin.com/CA/San-Francisco/1914-Funston-Ave-94116/home/1436889,MLSListings,ML81843498,N,Y,37.75238,-122.469465
MLS Listing,,Single Family Residential,2282 44th Ave,San Francisco,CA,94116,1095000,3,2.0,San Francisco,1284,2060,1941,1,853,,Active,,,http://www.redfin.com/CA/San-Francisco/2282-44th-Ave-94116/home/1299152,San Francisco MLS,421540457,N,Y,37.7441051,-122.5024285
MLS Listing,,Condo/Co-op,858 Capp St #2,San Francisco,CA,94110,1199000,2,2.0,San Francisco,1015,,2021,1,1181,432,Active,,,http://www.redfin.com/CA/San-Francisco/858-Capp-St-94110/unit-2/home/175116001,San Francisco MLS,421546345,N,Y,37.7529271,-122.4176769
MLS Listing,,Condo/Co-op,858 Capp St #5,San Francisco,CA,94110,1699000,2,2.0,San Francisco,1343,,2021,1,1265,470,Active,,,http://www.redfin.com/CA/San-Francisco/858-Capp-St-94110/unit-5/home/175116000,San Francisco MLS,421545163,N,Y,37.7529271,-122.4176769
MLS Listing,,Single Family Residential,175 Granada Ave,San Francisco,CA,94112,1330000,0,2.0,Ingelside,1400,2809,1963,1,950,,Active,,,http://www.redfin.com/CA/San-Francisco/175-Granada-Ave-94112/home/1095995,"bridgeMLS, Bay East AOR, or Contra Costa AOR",40949544,N,Y,37.7213138,-122.4573614
MLS Listing,,Vacant Land,461 29th St,San Francisco,CA,94131,2495000,0,,San Francisco,,2848,,1,,,Active,,,http://www.redfin.com/CA/San-Francisco/461-29th-St-94131/home/1105103,San Francisco MLS,421547607,N,Y,37.7433,-122.4302014
MLS Listing,,Condo/Co-op,239 8th St #9,SAN FRANCISCO,CA,94103,1199888,2,2.5,SAN FRANCISCO,1704,,2003,1,704,767,Active,,,http://www.redfin.com/CA/San-Francisco/239-8th-St-94102/unit-9/home/12398550,MLSListings,ML81843462,N,Y,37.7759115,-122.4108595
MLS Listing,,Single Family Residential,76 Amber Dr,San Francisco,CA,94131,1900000,4,2.5,San Francisco,1838,4865,1962,1,1034,,Active,,,http://www.redfin.com/CA/San-Francisco/76-Amber-Dr-94131/home/1027831,San Francisco MLS,421540174,N,Y,37.7463197,-122.4451978
MLS Listing,,Multi-Family (2-4 Unit),539 - 541 Waller St,San Francisco,CA,94117,2495000,8,3.0,San Francisco,3543,1467,1900,1,704,,Active,,,http://www.redfin.com/CA/SAN-FRANCISCO/539-541-WALLER-ST-94117/home/2012702,San Francisco MLS,421544071,N,Y,37.770708,-122.432553
MLS Listing,,Multi-Family (5+ Unit),361 - 365 2nd Ave,San Francisco,CA,94118,3880000,7,6.0,San Francisco,7190,5998,1964,1,540,,Active,,,http://www.redfin.com/CA/San-Francisco/361-2nd-Ave-94118/home/1530953,San Francisco MLS,421547196,N,Y,37.7819554,-122.4602915
MLS Listing,,Multi-Family (2-4 Unit),3042-3046 Pierce St,SAN FRANCISCO,CA,94123,3850000,9,4.0,SAN FRANCISCO,4049,3441,1900,1,951,,Active,,,http://www.redfin.com/CA/San-Francisco/3042-Pierce-St-94123/unit-3046/home/2010056,MLSListings,ML81843420,N,Y,37.7982144,-122.4387297
MLS Listing,,Single Family Residential,2891 Jackson St,San Francisco,CA,94115,4950000,3,3.5,San Francisco,2780,2179,1900,1,1781,,Active,,,http://www.redfin.com/CA/San-Francisco/2891-Jackson-St-94115/home/1979418,San Francisco MLS,421547639,N,Y,37.791253,-122.442528
MLS Listing,,Single Family Residential,1880 Turk Blvd,San Francisco,CA,94115,5200000,8,8.0,San Francisco,7500,6390,1900,1,693,,Active,,,http://www.redfin.com/CA/San-Francisco/1880-Turk-Blvd-94115/home/1992046,San Francisco MLS,421546523,N,Y,37.7797338,-122.4402213
MLS Listing,,Condo/Co-op,1835 Franklin St #702,San Francisco,CA,94109,1195000,2,2.0,San Francisco,1500,8300,1965,1,797,1440,Active,,,http://www.redfin.com/CA/San-Francisco/1835-Franklin-St-94109/unit-702/home/1235906,San Francisco MLS,421526367,N,Y,37.7915552,-122.4245357
MLS Listing,,Single Family Residential,118 Broderick St,San Francisco,CA,94117,3398000,3,3.5,San Francisco,3497,2060,1900,1,972,,Active,,,http://www.redfin.com/CA/San-Francisco/118-Broderick-St-94117/home/1992120,San Francisco MLS,421545361,N,Y,37.7717357,-122.438558
MLS Listing,,Condo/Co-op,6542 Fulton St,San Francisco,CA,94121,998000,2,1.0,San Francisco,994,1190,1937,1,1004,200,Active,,,http://www.redfin.com/CA/San-Francisco/6542-Fulton-St-94121/home/12277499,San Francisco MLS,421547482,N,Y,37.7719053,-122.5020418
MLS Listing,,Condo/Co-op,1300 22nd St #206,San Francisco,CA,94107,1365000,2,2.0,San Francisco,920,32000,2016,1,1484,754,Active,,,http://www.redfin.com/CA/San-Francisco/1300-22nd-St-94107/unit-206/home/167315220,San Francisco MLS,421546907,N,Y,37.7578379,-122.3944714
MLS Listing,,Condo/Co-op,45 Bartlett St #215,San Francisco,CA,94110,649000,1,1.0,San Francisco,494,23803,2014,1,1314,549,Active,,,http://www.redfin.com/CA/San-Francisco/45-Bartlett-St-94110/unit-215/home/109315471,San Francisco MLS,421541451,N,Y,37.7558162,-122.4197494
MLS Listing,,Condo/Co-op,827 North Point St #3,San Francisco,CA,94109,2350000,3,2.0,San Francisco,1579,3438,2014,1,1488,400,Active,,,http://www.redfin.com/CA/San-Francisco/827-N-Point-St-94109/unit-3/home/56876209,San Francisco MLS,421527518,N,Y,37.805534,-122.420929
MLS Listing,,Condo/Co-op,1733 Scott St #3,San Francisco,CA,94115,1495000,3,2.5,San Francisco,1425,2207,2001,1,1049,452,Active,,,http://www.redfin.com/CA/San-Francisco/1733-Scott-St-94115/unit-3/home/852393,San Francisco MLS,421534076,N,Y,37.7861802,-122.4385625
MLS Listing,,Condo/Co-op,1998 Broadway #807,San Francisco,CA,94109,1450000,2,2.0,Pacific Heights,1030,,1964,2,1408,1288,Active,,,http://www.redfin.com/CA/San-Francisco/1998-Broadway-94109/unit-807/home/1865773,"bridgeMLS, Bay East AOR, or Contra Costa AOR",40949439,N,Y,37.7953251,-122.4298254
MLS Listing,,Multi-Family (2-4 Unit),5061-63 Mission St,SAN FRANCISCO,CA,94112,1499000,,,SAN FRANCISCO,2450,2088,1941,2,612,,Active,,,http://www.redfin.com/CA/San-Francisco/5061-Mission-St-94112/home/174914769,MLSListings,ML81843345,N,Y,37.7175012,-122.4399449
MLS Listing,,Condo/Co-op,290 Meadow Dr #1,San Francisco,CA,94130,3734000,3,3.5,San Francisco,2457,,,2,1520,1304,Active,,,http://www.redfin.com/CA/San-Francisco/290-Meadow-DR-94130/unit-1/home/175111480,San Francisco MLS,421547302,N,Y,37.8229361,-122.3702611
MLS Listing,,Multi-Family (2-4 Unit),3025 San Bruno Ave,SAN FRANCISCO,CA,94134,1298000,,,SAN FRANCISCO,2489,2047,1979,2,521,,Active,,,http://www.redfin.com/CA/San-Francisco/3025-San-Bruno-Ave-94134/home/1993741,MLSListings,ML81843331,N,Y,37.7234839,-122.4016382
MLS Listing,,Condo/Co-op,290 Red Rock Way Unit A,San Francisco,CA,94131,995000,4,2.5,San Francisco,1513,,1964,2,658,1119,Active,,,http://www.redfin.com/CA/San-Francisco/290-Red-Rock-Way-94131/unit-A/home/175110771,San Francisco MLS,421547654,N,Y,37.7460707,-122.443033
MLS Listing,,Condo/Co-op,1438 Green St Unit 7E and Studio 3,SAN FRANCISCO,CA,94109,2300000,3,3.0,SAN FRANCISCO,1738,,1998,2,1323,1100,Active,,,http://www.redfin.com/CA/San-Francisco/1438-Green-St-94109/unit-7E-and-Studio-3/home/175110699,MLSListings,ML81843326,N,Y,37.7980437,-122.4229237
MLS Listing,,Condo/Co-op,901 Bush St #503,San Francisco,CA,94109,499000,1,1.0,San Francisco,429,4727,1909,2,1163,459,Active,,,http://www.redfin.com/CA/San-Francisco/901-Bush-St-94109/unit-503/home/23423950,San Francisco MLS,421541021,N,Y,37.7895603,-122.4122365
MLS Listing,,Single Family Residential,1087 Goettingen St,San Francisco,CA,94134,799000,0,1.0,Visitation Vall.,830,1751,1954,2,963,,Active,,,http://www.redfin.com/CA/San-Francisco/1087-Goettingen-St-94134/home/1912354,"bridgeMLS, Bay East AOR, or Contra Costa AOR",40949349,N,Y,37.7186678,-122.4030013
MLS Listing,,Single Family Residential,574 London St,San Francisco,CA,94112,799000,2,1.0,San Francisco,1250,2495,1925,2,639,,Active,,,http://www.redfin.com/CA/San-Francisco/574-London-St-94112/home/1986314,San Francisco MLS,421547210,N,Y,37.7201323,-122.4374455
MLS Listing,,Condo/Co-op,2121 Webster St #301,San Francisco,CA,94115,4495000,3,2.5,San Francisco,2112,,2016,2,2128,1979,Active,,,http://www.redfin.com/CA/San-Francisco/2121-Webster-St-94115/unit-301/home/125805661,San Francisco MLS,421547548,N,Y,37.790222,-122.4329706
MLS Listing,,Single Family Residential,1554 44th Ave,San Francisco,CA,94122,1195000,3,1.0,San Francisco,1469,3000,1936,2,813,,Active,,,http://www.redfin.com/CA/San-Francisco/1554-44th-Ave-94122/home/635214,San Francisco MLS,421547541,N,Y,37.7576412,-122.5033251
MLS Listing,,Single Family Residential,468 Edinburgh St,San Francisco,CA,94112,1288888,4,3.5,San Francisco,2100,2495,1975,2,614,,Active,,,http://www.redfin.com/CA/San-Francisco/468-Edinburgh-St-94112/home/779240,San Francisco MLS,421545013,N,Y,37.72187,-122.431869
MLS Listing,,Condo/Co-op,88 King St #521,San Francisco,CA,94107,1325000,2,2.0,San Francisco,1145,82157,2000,2,1157,1124,Active,,,http://www.redfin.com/CA/San-Francisco/88-King-St-94107/unit-521/home/1987517,San Francisco MLS,421547188,N,Y,37.7806744,-122.3892218
MLS Listing,,Condo/Co-op,2853 Folsom St,San Francisco,CA,94110,1795000,2,2.5,San Francisco,1630,2809,,2,1101,353,Active,,,http://www.redfin.com/CA/San-Francisco/2853-Folsom-St-94110/home/1379812,San Francisco MLS,421546692,N,Y,37.7517154,-122.413668
MLS Listing,,Multi-Family (2-4 Unit),131 - 133 10th Ave,San Francisco,CA,94118,2800000,5,,San Francisco,3290,3000,1911,2,851,,Active,,,http://www.redfin.com/CA/San-Francisco/131-10th-Ave-94118/home/922871,San Francisco MLS,421546957,N,Y,37.7858411,-122.4692551
MLS Listing,,Single Family Residential,81 Bradford St,San Francisco,CA,94110,1195000,1,1.0,San Francisco,,3500,1960,2,,,Active,,,http://www.redfin.com/CA/San-Francisco/81-Bradford-St-94110/home/52059258,San Francisco MLS,421542351,N,Y,37.7416767,-122.4092848
MLS Listing,,Condo/Co-op,110 Channel St #312,San Francisco,CA,94158,809000,0,1.0,San Francisco,,49773,2017,2,,756,Active,,,http://www.redfin.com/CA/San-Francisco/110-Channel-St-94158/unit-312/home/108588136,San Francisco MLS,421531141,N,Y,37.7751436,-122.3906212
MLS Listing,,Condo/Co-op,2701 Van Ness Ave #411,San Francisco,CA,94109,849000,1,1.0,San Francisco,816,11915,1929,2,1040,574,Active,,,http://www.redfin.com/CA/San-Francisco/2701-Van-Ness-Ave-94109/unit-411/home/1952962,San Francisco MLS,421546945,N,Y,37.800573,-122.424849
MLS Listing,,Multi-Family (2-4 Unit),66 - 68 Winfield St,San Francisco,CA,94110,1950000,5,3.0,San Francisco,2396,1750,1900,2,814,,Active,,,http://www.redfin.com/CA/San-Francisco/66-Winfield-St-94110/home/1167166,San Francisco MLS,421546684,N,Y,37.744104,-122.417772
MLS Listing,,Single Family Residential,2085 Ocean Ave,San Francisco,CA,94127,2178500,4,3.0,San Francisco,2438,7762,1922,2,894,,Active,,,http://www.redfin.com/CA/San-Francisco/2085-Ocean-Ave-94127/home/1599427,San Francisco MLS,421547160,N,Y,37.7262758,-122.4656807
MLS Listing,,Condo/Co-op,160 Gardenside Dr #402,San Francisco,CA,94131,699000,1,1.0,San Francisco,759,17471,1975,2,921,449,Active,,,http://www.redfin.com/CA/San-Francisco/160-Gardenside-Dr-94131/unit-402/home/1446303,San Francisco MLS,421547011,N,Y,37.7543069,-122.4444679
MLS Listing,,Condo/Co-op,2855 Folsom St Unit A,San Francisco,CA,94110,2995000,3,3.0,San Francisco,2290,2809,,2,1308,707,Active,,,http://www.redfin.com/CA/San-Francisco/2855-Folsom-St-94110/unit-A/home/175108098,San Francisco MLS,421546609,N,Y,37.7516657,-122.4139053
MLS Listing,,Condo/Co-op,435 China Basin St #218,San Francisco,CA,94158,968000,1,1.0,San Francisco,838,122891,2012,2,1155,815,Active,,,http://www.redfin.com/CA/San-Francisco/435-China-Basin-St-94158/unit-218/home/40629245,San Francisco MLS,421544740,N,Y,37.7719225,-122.3885494
MLS Listing,,Condo/Co-op,2829 25th St #2,San Francisco,CA,94110,1495000,2,2.0,San Francisco,1317,,1900,3,1135,434,Active,,,http://www.redfin.com/CA/San-Francisco/2829-25th-St-94110/unit-2/home/173681039,San Francisco MLS,421546761,N,Y,37.7510579,-122.4067261
MLS Listing,,Condo/Co-op,988 Fulton St #114,San Francisco,CA,94117,820000,1,1.0,San Francisco,695,41262,1999,3,1180,530,Active,,,http://www.redfin.com/CA/San-Francisco/988-Fulton-St-94117/unit-114/home/11892969,San Francisco MLS,421540512,N,Y,37.7777325,-122.4326346
MLS Listing,,Single Family Residential,149 Arleta,San Francisco,CA,94134,1399000,5,3.0,Visitation Vall.,2000,2382,1909,3,700,,Active,,,http://www.redfin.com/CA/San-Francisco/149-Arleta-Ave-94134/home/1448497,"bridgeMLS, Bay East AOR, or Contra Costa AOR",40949282,N,Y,37.7135203,-122.4062648
MLS Listing,,Single Family Residential,3536 Anza St,San Francisco,CA,94121,1449000,4,2.0,San Francisco,,3438,1919,3,,,Active,,,http://www.redfin.com/CA/San-Francisco/3536-Anza-St-94121/home/611570,San Francisco MLS,421546893,N,Y,37.7782491,-122.4863263
MLS Listing,,Single Family Residential,80 Regent St,San Francisco,CA,94112,1190000,5,5.0,San Francisco,3200,2548,2008,3,372,,Active,,,http://www.redfin.com/CA/San-Francisco/80-Regent-St-94112/home/28898932,San Francisco MLS,421544188,N,Y,37.709925,-122.4566109
MLS Listing,,Single Family Residential,423 Silver Ave,San Francisco,CA,94112,1200000,3,2.0,Excelsior,1500,2779,1918,3,800,,Active,,,http://www.redfin.com/CA/San-Francisco/423-Silver-Ave-94112/home/770130,"bridgeMLS, Bay East AOR, or Contra Costa AOR",40949266,N,Y,37.728791,-122.427666
MLS Listing,,Condo/Co-op,188 Minna St Unit 36B,San Francisco,CA,94105,3095000,2,2.5,San Francisco,1658,33056,2005,3,1867,2733,Active,,,http://www.redfin.com/CA/San-Francisco/188-Minna-94105/unit-36B/home/22886081,San Francisco MLS,421542987,N,Y,37.7861425,-122.4012961
MLS Listing,,Single Family Residential,224 Cambridge St,SAN FRANCISCO,CA,94134,1088000,2,1.0,SAN FRANCISCO,1162,2374,1947,3,936,,Active,,,http://www.redfin.com/CA/San-Francisco/224-Cambridge-St-94134/home/1406935,MLSListings,ML81843130,N,Y,37.7285281,-122.4195279
MLS Listing,,Vacant Land,326 Gambier St,San Francisco,CA,94134,599000,0,,San Francisco,,2950,,3,,,Active,,,http://www.redfin.com/CA/San-Francisco/326-Gambier-St-94134/unit-V/home/110064414,San Francisco MLS,421547276,N,Y,37.725208,-122.421496
MLS Listing,,Condo/Co-op,88 Townsend St #221,San Francisco,CA,94107,998000,1,1.0,San Francisco,950,37623,2004,3,1051,664,Active,,,http://www.redfin.com/CA/San-Francisco/88-Townsend-St-94102/unit-221/home/12401553,San Francisco MLS,421547287,N,Y,37.7811985,-122.3906654
MLS Listing,,Single Family Residential,665 29th St,San Francisco,CA,94131,3495000,4,4.0,San Francisco,3555,3683,1904,3,983,,Active,,,http://www.redfin.com/CA/San-Francisco/665-29th-St-94131/home/1940859,San Francisco MLS,421545168,N,Y,37.7429599,-122.434702
MLS Listing,,Multi-Family (2-4 Unit),33 - 37 29th St,San Francisco,CA,94110,3100000,6,4.0,San Francisco,4500,1572,1908,3,689,,Active,,,http://www.redfin.com/CA/San-Francisco/33-29th-St-94110/home/22045708,San Francisco MLS,421547300,N,Y,37.7438325,-122.4216653
MLS Listing,,Condo/Co-op,181 Fremont Unit 68B,San Francisco,CA,94105,15500000,2,2.5,San Francisco,3256,,2018,3,4760,3426,Active,,,http://www.redfin.com/CA/San-Francisco/181-Fremont-St-94105/unit-68B/home/148581467,San Francisco MLS,421547268,N,Y,37.7898082,-122.3953565
MLS Listing,,Condo/Co-op,57 Alpine Ter,San Francisco,CA,94117,2075000,3,2.5,San Francisco,2115,2156,,3,981,245,Active,,,http://www.redfin.com/CA/San-Francisco/57-Alpine-Ter-94117/home/40142525,San Francisco MLS,421546454,N,Y,37.7695797,-122.4374314
MLS Listing,,Single Family Residential,1410 Jefferson St,San Francisco,CA,94123,3850000,4,4.0,San Francisco,3023,,1931,3,1274,,Active,,,http://www.redfin.com/CA/San-Francisco/1410-Jefferson-St-94123/home/1049587,San Francisco MLS,421547018,N,Y,37.8057937,-122.4359494
MLS Listing,,Condo/Co-op,1040 Masonic Ave #2,San Francisco,CA,94117,998000,2,1.0,San Francisco,,3440,,3,,438,Active,,,http://www.redfin.com/CA/San-Francisco/1040-Masonic-Ave-94117/unit-2/home/1441185,San Francisco MLS,421544641,N,Y,37.771596,-122.4451978
MLS Listing,,Single Family Residential,318 Gambier St,San Francisco,CA,94134,699000,2,,San Francisco,720,2375,1912,3,971,,Active,,,http://www.redfin.com/CA/San-Francisco/318-Gambier-St-94134/home/1663534,San Francisco MLS,421547208,N,Y,37.7252723,-122.4214858
MLS Listing,,Multi-Family (2-4 Unit),583 - 585 Grove St,San Francisco,CA,94102,995000,3,2.0,San Francisco,1536,762,1900,3,648,,Active,,,http://www.redfin.com/CA/San-Francisco/583-Grove-St-94102/home/1050484,San Francisco MLS,421547209,N,Y,37.7773133,-122.4260924
MLS Listing,,Condo/Co-op,118 Alta St,San Francisco,CA,94133,2495000,3,2.5,San Francisco,2363,7487,1907,3,1056,608,Active,,,http://www.redfin.com/CA/San-Francisco/118-Alta-St-94133/home/1088351,San Francisco MLS,421545133,N,Y,37.801591,-122.405323
MLS Listing,,Condo/Co-op,280 Spear St Unit 25F,San Francisco,CA,94105,1599999,1,1.0,San Francisco,800,,,3,2000,1115,Active,,,http://www.redfin.com/CA/San-Francisco/280-Spear-St-94105/unit-25F/home/175106366,San Francisco MLS,421544129,N,Y,37.7904035,-122.3915567
MLS Listing,,Condo/Co-op,1924 Grove St,San Francisco,CA,94117,1695000,3,2.0,San Francisco,1621,2750,1921,3,1046,200,Active,,,http://www.redfin.com/CA/San-Francisco/1924-Grove-St-94117/home/21966501,San Francisco MLS,421528732,N,Y,37.774837,-122.4484
MLS Listing,,Condo/Co-op,2200 Pacific Ave Unit 4A,San Francisco,CA,94115,1488000,2,2.0,San Francisco,1856,14450,1962,3,802,1737,Active,,,http://www.redfin.com/CA/San-Francisco/2200-Pacific-Ave-94115/unit-4A/home/1451114,San Francisco MLS,421547122,N,Y,37.7939819,-122.4317719
MLS Listing,,Single Family Residential,63 Bronte St,San Francisco,CA,94110,1195000,2,1.0,San Francisco,1025,1751,1947,3,1166,,Active,,,http://www.redfin.com/CA/San-Francisco/63-Bronte-St-94110/home/1084115,San Francisco MLS,421547161,N,Y,37.7387258,-122.4100702
MLS Listing,,Single Family Residential,729 Congo St,San Francisco,CA,94131,3495000,4,3.5,San Francisco,3350,1936,2013,3,1043,,Active,,,http://www.redfin.com/CA/San-Francisco/729-Congo-St-94131/home/28923056,San Francisco MLS,514478,N,Y,37.735557,-122.4417712
MLS Listing,,Single Family Residential,1488 Rhode Island St,San Francisco,CA,94107,1199000,2,1.0,San Francisco,845,2700,1927,3,1419,,Active,,,http://www.redfin.com/CA/San-Francisco/1488-Rhode-Island-St-94107/home/1534019,San Francisco MLS,421547030,N,Y,37.7508605,-122.4014856
MLS Listing,,Multi-Family (2-4 Unit),3774 Mission St,San Francisco,CA,94110,995000,4,,San Francisco,2372,2495,1910,3,419,,Active,,,http://www.redfin.com/CA/San-Francisco/3774-Mission-St-94110/home/60366509,San Francisco MLS,421547137,N,Y,37.7364325,-122.4245278
MLS Listing,,Condo/Co-op,2250 Hyde St #2,San Francisco,CA,94109,2475000,2,2.0,San Francisco,,,,3,,867,Active,,,http://www.redfin.com/CA/San-Francisco/2250-Hyde-St-94109/unit-2/home/12400007,San Francisco MLS,421544702,N,Y,37.801749,-122.4194063
MLS Listing,,Vacant Land,1633 Cabrillo St,San Francisco,CA,94121,1788000,0,,San Francisco,,2495,,3,,,Active,,,http://www.redfin.com/CA/San-Francisco/1633-Cabrillo-St-94121/home/109272094,San Francisco MLS,421544971,N,Y,37.7745541,-122.4763259
MLS Listing,,Multi-Family (5+ Unit),58 - 62 Alvarado,San Francisco,CA,94110,1495000,,2.0,San Francisco,4725,2850,,3,316,,Active,,,http://www.redfin.com/CA/San-Francisco/58-Alvarado-St-94110/home/719313,San Francisco MLS,421543356,N,Y,37.7546565,-122.4224257
MLS Listing,,Condo/Co-op,709 Central,San Francisco,CA,94117,1295000,3,1.5,San Francisco,1228,1856,,4,1055,150,Active,,,http://www.redfin.com/CA/San-Francisco/709-Central-Ave-94117/home/859659,San Francisco MLS,513889,N,Y,37.7762097,-122.4450069
MLS Listing,,Vacant Land,999 Donner Ave,San Francisco,CA,94124,7500,0,,San Francisco,,4996,,4,,,Active,,,http://www.redfin.com/CA/San-Francisco/999-Donner-Ave-94124/home/175104840,San Francisco MLS,421547074,N,Y,37.7191477,-122.3850685
MLS Listing,,Single Family Residential,109 Porter St,San Francisco,CA,94110,1338800,3,4.0,San Francisco,1700,1746,,4,788,,Active,,,http://www.redfin.com/CA/San-Francisco/109-Porter-St-94110/home/1559033,San Francisco MLS,421545307,N,Y,37.7338199,-122.4180347
MLS Listing,,Condo/Co-op,74 Hartford St,San Francisco,CA,94114,1645000,2,2.0,San Francisco,1373,3520,1901,4,1198,266,Active,,,http://www.redfin.com/CA/San-Francisco/74-Hartford-St-94114/home/144063817,San Francisco MLS,421542277,N,Y,37.7613488,-122.4341482
MLS Listing,,Single Family Residential,1317 Bosworth St,San Francisco,CA,94131,1695000,3,2.0,San Francisco,1625,6075,1921,5,1043,,Active,,,http://www.redfin.com/CA/San-Francisco/1317-Bosworth-St-94131/home/1177532,San Francisco MLS,421544987,N,Y,37.7365542,-122.44208
MLS Listing,,Single Family Residential,440 Silliman St,San Francisco,CA,94134,998000,4,1.5,San Francisco,2425,2517,1915,5,412,,Active,,,http://www.redfin.com/CA/San-Francisco/440-Silliman-St-94134/home/1901431,San Francisco MLS,421544541,N,Y,37.730231,-122.409811
MLS Listing,,Condo/Co-op,2217 Pacific Ave #3,San Francisco,CA,94115,810000,1,1.0,San Francisco,612,3152,1904,5,1324,255,Active,,,http://www.redfin.com/CA/San-Francisco/2217-Pacific-Ave-94115/unit-3/home/1383825,San Francisco MLS,421522989,N,Y,37.793421,-122.432139
MLS Listing,,Multi-Family (5+ Unit),688 Haight St,San Francisco,CA,94117,2500000,7,2.0,San Francisco,4950,2750,1885,5,505,,Active,,,http://www.redfin.com/CA/San-Francisco/688-Haight-St-94117/home/52370241,San Francisco MLS,421546748,N,Y,37.7719008,-122.4335636
MLS Listing,,Single Family Residential,393 Warren Dr,San Francisco,CA,94131,1795000,4,3.0,San Francisco,2070,3349,1961,5,867,,Active,,,http://www.redfin.com/CA/San-Francisco/393-Warren-Dr-94131/home/1685937,San Francisco MLS,421546729,N,Y,37.756606,-122.4616072
MLS Listing,,Multi-Family (2-4 Unit),100 - 104 College Ave,San Francisco,CA,94112,2950000,9,3.0,San Francisco,5472,2391,1912,5,539,,Active,,,http://www.redfin.com/CA/San-Francisco/100-College-Ave-94112/home/148077435,San Francisco MLS,421546895,N,Y,37.7353705,-122.4269607
MLS Listing,,Condo/Co-op,2831 - 2833 Webster St #6,San Francisco,CA,94123,799000,2,1.0,San Francisco,769,2970,1906,5,1039,373,Active,,,http://www.redfin.com/CA/San-Francisco/2831-Webster-St-94123/unit-6/home/175103230,San Francisco MLS,421546901,N,Y,37.7967746,-122.4340136
MLS Listing,,Single Family Residential,307 Parker,San Francisco,CA,94118,2500000,3,2.0,San Francisco,2629,,1959,5,951,,Active,,,http://www.redfin.com/CA/San-Francisco/307-Parker-Ave-94118/home/1739787,San Francisco MLS,421546888,N,Y,37.7799121,-122.4540884
MLS Listing,,Single Family Residential,7 Edna St,San Francisco,CA,94112,949000,2,1.0,San Francisco,915,2495,1914,5,1037,,Active,,,http://www.redfin.com/CA/San-Francisco/7-Edna-St-94112/home/698453,San Francisco MLS,421536380,N,Y,37.7268525,-122.4467459
MLS Listing,,Multi-Family (5+ Unit),2981 - 2987 25th St,San Francisco,CA,94110,2490000,8,4.0,San Francisco,4310,2622,1910,6,578,,Active,,,http://www.redfin.com/CA/San-Francisco/2981-25th-St-94110/home/736915,San Francisco MLS,421546836,N,Y,37.7510226,-122.4096686
MLS Listing,,Single Family Residential,25 Margaret Ave,San Francisco,CA,94112,1288000,4,2.5,San Francisco,2440,2535,1931,6,528,,Active,,,http://www.redfin.com/CA/San-Francisco/25-Margaret-Ave-94112/home/2022600,San Francisco MLS,421545713,N,Y,37.7182137,-122.4517331
MLS Listing,,Condo/Co-op,139 South Lake Merced Hls Unit 1B,San Francisco,CA,94132,849000,3,2.0,San Francisco,1474,15266,1975,6,576,897,Active,,,http://www.redfin.com/CA/San-Francisco/139-S-Lake-Merced-Hls-94132/unit-1B/home/1940766,San Francisco MLS,421546734,N,Y,37.7085685,-122.4832098
MLS Listing,,Multi-Family (2-4 Unit),1919 - 1921 Ocean Ave,San Francisco,CA,94127,1888000,4,1.0,San Francisco,3632,3632,1924,6,520,,Active,,,http://www.redfin.com/CA/San-Francisco/1919-Ocean-Ave-94127/home/148076196,San Francisco MLS,421546828,N,Y,37.7252488,-122.4628456
MLS Listing,,Single Family Residential,1626 21st Ave,San Francisco,CA,94122,1299000,3,2.0,San Francisco,2033,2996,1938,6,639,,Active,,,http://www.redfin.com/CA/San-Francisco/1626-21st-Ave-94122/home/1636324,San Francisco MLS,421545166,N,Y,37.757343,-122.4785446
MLS Listing,,Condo/Co-op,200 Townsend St #21,San Francisco,CA,94107,899000,1,2.0,San Francisco,877,15768,2003,6,1025,624,Active,,,http://www.redfin.com/CA/San-Francisco/200-Townsend-St-94107/unit-21/home/2072674,San Francisco MLS,421542159,N,Y,37.7789208,-122.3932323
MLS Listing,,Condo/Co-op,250 King St #778,San Francisco,CA,94107,1128000,2,2.0,San Francisco,1122,213232,2004,6,1005,1053,Active,,,http://www.redfin.com/CA/San-Francisco/250-King-St-94107/unit-778/home/22889376,San Francisco MLS,421546629,N,Y,37.7781222,-122.3932903
MLS Listing,,Condo/Co-op,3566 17th St #4,San Francisco,CA,94110,949000,3,1.0,San Francisco,940,3432,1994,6,1010,275,Active,,,http://www.redfin.com/CA/San-Francisco/3566-17th-St-94110/unit-4/home/706218,San Francisco MLS,421546612,N,Y,37.7632643,-122.4253349
MLS Listing,,Single Family Residential,130 Melrose Ave,San Francisco,CA,94127,1188000,3,2.0,San Francisco,1568,2352,1946,6,758,,Active,,,http://www.redfin.com/CA/San-Francisco/130-Melrose-Ave-94127/home/1878649,San Francisco MLS,421546522,N,Y,37.7339848,-122.4451093
MLS Listing,,Single Family Residential,647 32nd Ave,San Francisco,CA,94121,1690000,3,2.0,San Francisco,2202,2996,1935,6,767,,Active,,,http://www.redfin.com/CA/San-Francisco/647-32nd-Ave-94121/home/618374,San Francisco MLS,421545664,N,Y,37.7769128,-122.4923885
MLS Listing,,Condo/Co-op,3208 Pierce St #402,San Francisco,CA,94123,1499000,2,2.5,San Francisco,1253,8260,2007,6,1196,977,Active,,,http://www.redfin.com/CA/San-Francisco/3208-Pierce-St-94123/unit-402/home/12354641,San Francisco MLS,421546701,N,Y,37.7997886,-122.4391866
MLS Listing,,Condo/Co-op,1885 Jackson St #101,San Francisco,CA,94109,1198000,2,2.0,San Francisco,1028,6524,1962,6,1165,995,Active,,,http://www.redfin.com/CA/San-Francisco/1885-Jackson-St-94109/unit-101/home/1953036,San Francisco MLS,421544053,N,Y,37.7933262,-122.4257994
MLS Listing,,Single Family Residential,2709 - 2711 Baker St,San Francisco,CA,94123,3600000,0,,San Francisco,3526,1454,1940,6,1021,,Active,,,http://www.redfin.com/CA/San-Francisco/2709-Baker-St-94123/home/1974630,San Francisco MLS,421546685,N,Y,37.7959705,-122.4456086
MLS Listing,,Condo/Co-op,355 Buena Vista Ave Unit 505 W,San Francisco,CA,94117,825000,1,1.0,San Francisco,719,90869,1986,6,1147,829,Active,,,http://www.redfin.com/CA/San-Francisco/355-Buena-Vista-Ave-E-94117/unit-505-W/home/175101292,San Francisco MLS,421545589,N,Y,37.7675542,-122.4400633
MLS Listing,,Condo/Co-op,1370 Broadway,San Francisco,CA,94109,1235000,3,1.0,San Francisco,1340,2111,1910,6,922,130,Active,,,http://www.redfin.com/CA/San-Francisco/1370-Broadway-94109/home/11892948,San Francisco MLS,421546604,N,Y,37.7962998,-122.41959
MLS Listing,,Condo/Co-op,1001 Pine St #612,San Francisco,CA,94109,589000,0,1.0,San Francisco,450,18906,1963,6,1309,430,Active,,,http://www.redfin.com/CA/San-Francisco/1001-Pine-St-94109/unit-612/home/552590,San Francisco MLS,421546186,N,Y,37.790348,-122.412568
MLS Listing,,Single Family Residential,1430 23rd Ave,San Francisco,CA,94122,1799000,3,2.5,San Francisco,2025,2487,1937,6,888,,Active,,,http://www.redfin.com/CA/San-Francisco/1430-23rd-Ave-94122/home/630532,San Francisco MLS,421546430,N,Y,37.7609112,-122.4809768
MLS Listing,,Condo/Co-op,3241 Mission St #3,SAN FRANCISCO,CA,94110,699888,1,1.0,SAN FRANCISCO,597,,1980,6,1172,230,Active,,,http://www.redfin.com/CA/San-Francisco/3241-3243-Mission-St-94110/unit-3/home/145589527,MLSListings,ML81842774,N,Y,37.744802,-122.4199728
MLS Listing,,Single Family Residential,41 Kronquist Ct,San Francisco,CA,94131,2795000,3,3.0,San Francisco,2012,2495,1949,6,1389,,Active,,,http://www.redfin.com/CA/San-Francisco/41-Kronquist-Ct-94131/home/2025274,San Francisco MLS,421546259,N,Y,37.7466139,-122.4348023
MLS Listing,,Townhouse,141 South Lake Merced Hls,San Francisco,CA,94132,998000,3,2.5,San Francisco,1904,1108,1975,6,524,623,Active,,,http://www.redfin.com/CA/San-Francisco/141-S-Lake-Merced-Hls-94132/home/899189,San Francisco MLS,421545683,N,Y,37.7082888,-122.483453
MLS Listing,,Condo/Co-op,2855 Folsom St,San Francisco,CA,94110,2195000,3,3.0,San Francisco,1935,2809,1902,6,1134,353,Active,,,http://www.redfin.com/CA/San-Francisco/2855-Folsom-St-94110/home/175100230,San Francisco MLS,421546383,N,Y,37.7516657,-122.4139053
MLS Listing,,Single Family Residential,1667 26th Ave,San Francisco,CA,94122,1998000,4,4.0,San Francisco,2843,2996,1940,6,703,,Active,,,http://www.redfin.com/CA/San-Francisco/1667-26th-Ave-94122/home/1932385,San Francisco MLS,421546421,N,Y,37.7563881,-122.484403
MLS Listing,,Condo/Co-op,640 De Haro St,San Francisco,CA,94107,1650000,3,2.0,San Francisco,1665,2944,1990,6,991,,Active,,,http://www.redfin.com/CA/San-Francisco/640-De-Haro-St-94107/home/1646021,San Francisco MLS,421545907,N,Y,37.761731,-122.401648
MLS Listing,,Condo/Co-op,585 Francisco St,San Francisco,CA,94133,849000,2,1.0,San Francisco,,2877,,6,,358,Active,,,http://www.redfin.com/CA/San-Francisco/585-Francisco-St-94133/home/40445011,San Francisco MLS,421546275,N,Y,37.8044489,-122.4147212
MLS Listing,,Condo/Co-op,815 Tennessee St #305,San Francisco,CA,94107,1495000,2,,San Francisco,1035,19971,2018,6,1444,741,Active,,,http://www.redfin.com/CA/San-Francisco/815-Tennessee-St-94107/unit-305/home/169572955,San Francisco MLS,421546242,N,Y,37.7614764,-122.3892934
MLS Listing,,Condo/Co-op,601 4th St #329,San Francisco,CA,94107,945000,1,1.0,San Francisco,1104,,1916,6,856,696,Active,,,http://www.redfin.com/CA/San-Francisco/601-4th-St-94107/unit-329/home/12396474,San Francisco MLS,421517904,N,Y,37.778254,-122.3958876
MLS Listing,,Single Family Residential,318 Louisburg St,San Francisco,CA,94112,995000,2,1.0,San Francisco,1250,1960,1936,6,796,,Active,,,http://www.redfin.com/CA/San-Francisco/318-Louisburg-St-94112/home/986757,San Francisco MLS,421546524,N,Y,37.7191429,-122.4511851
MLS Listing,,Condo/Co-op,21 Isis St #201,San Francisco,CA,94103,799000,1,1.5,San Francisco,952,1774,1996,6,839,300,Active,,,http://www.redfin.com/CA/San-Francisco/21-Isis-St-94103/unit-201/home/12395646,San Francisco MLS,421546532,N,Y,37.7702304,-122.4143791
MLS Listing,,Condo/Co-op,1531 11th Ave,San Francisco,CA,94122,1545000,3,2.0,San Francisco,1550,2999,1964,6,997,270,Active,,,http://www.redfin.com/CA/San-Francisco/1531-11th-Ave-94122/home/144063742,San Francisco MLS,421546516,N,Y,37.7596153,-122.4683522
MLS Listing,,Condo/Co-op,4250 - A 25th St,San Francisco,CA,94114,1099999,3,2.0,San Francisco,961,3419,1907,6,1145,300,Active,,,http://www.redfin.com/CA/San-Francisco/4250-25th-St-94114/home/18958903,San Francisco MLS,421546384,N,Y,37.7498083,-122.4350614
MLS Listing,,Condo/Co-op,3380 22nd St Unit A,San Francisco,CA,94110,1195000,2,2.0,San Francisco,,3100,1900,6,,175,Active,,,http://www.redfin.com/CA/San-Francisco/3380-22nd-St-94110/unit-A/home/175099515,San Francisco MLS,421545489,N,Y,37.7554044,-122.4226921
MLS Listing,,Multi-Family (2-4 Unit),3221 - 3223 Market St,San Francisco,CA,94114,1625000,5,,San Francisco,1670,2596,1908,6,973,,Active,,,http://www.redfin.com/CA/San-Francisco/3221-Market-St-94114/home/1766418,San Francisco MLS,421545659,N,Y,37.7590665,-122.4445445
MLS Listing,,Single Family Residential,985 Clayton St,San Francisco,CA,94117,2995000,4,3.0,San Francisco,2751,2250,1913,6,1089,,Active,,,http://www.redfin.com/CA/San-Francisco/985-Clayton-St-94117/home/1228261,San Francisco MLS,421546463,N,Y,37.7639473,-122.4474647
MLS Listing,,Condo/Co-op,750 South Van Ness Ave,San Francisco,CA,94110,1398000,3,1.5,San Francisco,1730,3568,1900,6,808,420,Active,,,http://www.redfin.com/CA/San-Francisco/750-S-Van-Ness-Ave-94110/home/17306699,San Francisco MLS,421544996,N,Y,37.7611453,-122.4174945
MLS Listing,,Single Family Residential,130 Stanford Heights Ave,San Francisco,CA,94127,1295000,2,1.0,San Francisco,,2574,1962,6,,,Active,,,http://www.redfin.com/CA/San-Francisco/130-Stanford-Heights-Ave-94127/home/1542090,San Francisco MLS,421537143,N,Y,37.7363819,-122.4496271
MLS Listing,,Condo/Co-op,1601 Pacific Ave #401,San Francisco,CA,94109,1595000,2,2.0,San Francisco,1310,7361,2000,6,1218,933,Active,,,http://www.redfin.com/CA/San-Francisco/1601-Pacific-Ave-94109/unit-401/home/12397566,San Francisco MLS,421532670,N,Y,37.7948488,-122.4218176
MLS Listing,,Condo/Co-op,239 Brannan St Unit 9G,San Francisco,CA,94107,1750000,2,2.0,San Francisco,1550,82966,2002,6,1129,1301,Active,,,http://www.redfin.com/CA/San-Francisco/239-Brannan-St-94107/unit-9G/home/1745989,San Francisco MLS,421533035,N,Y,37.782662,-122.39058
MLS Listing,,Single Family Residential,2619 25th Ave,San Francisco,CA,94116,1295000,3,1.0,San Francisco,1368,2996,1948,6,947,,Active,,,http://www.redfin.com/CA/San-Francisco/2619-25th-Ave-94116/home/1985225,San Francisco MLS,421546265,N,Y,37.7386101,-122.4820823
MLS Listing,,Condo/Co-op,1327 Cabrillo St,San Francisco,CA,94118,1575000,2,1.5,San Francisco,1755,2750,1922,6,897,,Active,,,http://www.redfin.com/CA/San-Francisco/1327-Cabrillo-St-94118/home/12277495,San Francisco MLS,421546112,N,Y,37.7747085,-122.4729413
MLS Listing,,Multi-Family (2-4 Unit),1775 - 1777 Pacific Ave,San Francisco,CA,94109,2735000,4,4.0,San Francisco,2762,1964,1950,6,990,,Active,,,http://www.redfin.com/CA/San-Francisco/1775-Pacific-Ave-94109/home/1871563,San Francisco MLS,421546303,N,Y,37.7944513,-122.4244551
MLS Listing,,Multi-Family (2-4 Unit),620 - 22 Waller St,San Francisco,CA,94117,2395000,4,2.0,San Francisco,2225,946,1900,6,1076,,Active,,,http://www.redfin.com/CA/San-Francisco/620-Waller-St-94117/home/1995930,San Francisco MLS,421545298,N,Y,37.7708297,-122.4340134
MLS Listing,,Multi-Family (2-4 Unit),30 - 32 Coso Ave,San Francisco,CA,94110,998000,3,2.0,San Francisco,1880,3524,1900,6,531,,Active,,,http://www.redfin.com/CA/San-Francisco/3032-Coso-Ave-94110/home/175105724,San Francisco MLS,421544784,N,Y,37.746199,-122.418535
MLS Listing,,Single Family Residential,762 Faxon Ave,San Francisco,CA,94112,1275000,2,1.0,San Francisco,1140,3489,1919,6,1118,12,Active,,,http://www.redfin.com/CA/San-Francisco/762-Faxon-Ave-94112/home/1702617,San Francisco MLS,421542200,N,Y,37.7268995,-122.4596612
MLS Listing,,Condo/Co-op,30 Coso Ave #32,San Francisco,CA,94110,449000,2,1.0,San Francisco,1160,3524,1900,6,387,,Active,,,http://www.redfin.com/CA/San-Francisco/30-Coso-Ave-94110/unit-32/home/175098078,San Francisco MLS,421544779,N,Y,37.746199,-122.418535
MLS Listing,,Condo/Co-op,30 Coso Ave #30,San Francisco,CA,94110,549000,1,1.0,San Francisco,1060,3524,1900,6,518,,Active,,,http://www.redfin.com/CA/San-Francisco/30-Coso-Ave-94110/unit-30/home/175098077,San Francisco MLS,421544771,N,Y,37.746199,-122.418535
MLS Listing,,Condo/Co-op,501 Crescent Way #5207,San Francisco,CA,94134,760000,2,2.0,San Francisco,1095,72305,2006,6,694,580,Active,,,http://www.redfin.com/CA/San-Francisco/501-Crescent-Way-94134/unit-5207/home/22888815,San Francisco MLS,421540546,N,Y,37.7120178,-122.3885605
MLS Listing,,Single Family Residential,23 Skyview Way,San Francisco,CA,94131,1995000,4,4.0,San Francisco,2317,,1955,6,861,,Active,,,http://www.redfin.com/CA/San-Francisco/23-Skyview-Way-94131/home/1308418,San Francisco MLS,421546114,N,Y,37.7493636,-122.4505499
MLS Listing,,Condo/Co-op,1325 Indiana St #103,San Francisco,CA,94107,1249000,2,2.5,San Francisco,1419,18428,2002,7,880,610,Active,,,http://www.redfin.com/CA/San-Francisco/1325-Indiana-St-94107/unit-103/home/1600788,San Francisco MLS,421544187,N,Y,37.753702,-122.3903556
MLS Listing,,Single Family Residential,1146 Florida St,San Francisco,CA,94110,3595000,3,3.5,San Francisco,2954,2500,1900,7,1217,,Active,,,http://www.redfin.com/CA/San-Francisco/1146-Florida-St-94110/home/965706,San Francisco MLS,421545383,N,Y,37.7535838,-122.4103387
MLS Listing,,Condo/Co-op,1334 Mcallister St,San Francisco,CA,94115,1785000,4,2.0,San Francisco,1905,3768,1890,7,937,461,Active,,,http://www.redfin.com/CA/San-Francisco/1334-McAllister-St-94115/home/1349293,San Francisco MLS,421546409,N,Y,37.77863,-122.434032
MLS Listing,,Single Family Residential,2334 46th Ave,San Francisco,CA,94116,799000,2,1.0,San Francisco,1125,2996,1941,7,710,,Active,,,http://www.redfin.com/CA/San-Francisco/2334-46th-Ave-94116/home/1921657,San Francisco MLS,421546341,N,Y,37.7429579,-122.5044857
MLS Listing,,Single Family Residential,17 Elsie St,San Francisco,CA,94110,1199000,2,1.5,San Francisco,1183,1750,1918,7,1014,,Active,,,http://www.redfin.com/CA/San-Francisco/17-Elsie-St-94110/home/1074913,San Francisco MLS,421545191,N,Y,37.7447353,-122.4162982
MLS Listing,,Single Family Residential,478 28th Ave,San Francisco,CA,94121,1499000,0,,San Francisco,2150,2688,1911,7,697,,Active,,,http://www.redfin.com/CA/San-Francisco/478-28th-Ave-94121/home/1199993,San Francisco MLS,421545721,N,Y,37.7804308,-122.4877863
MLS Listing,,Condo/Co-op,1282 Hayes #401,San Francisco,CA,94117,2395000,3,3.0,San Francisco,,,2019,7,,768,Active,,,http://www.redfin.com/CA/San-Francisco/1282-Hayes-St-94117/unit-401/home/174473448,San Francisco MLS,421546344,N,Y,37.775193,-122.4372745
MLS Listing,,Condo/Co-op,125 Randall St,San Francisco,CA,94131,1489000,2,1.0,San Francisco,1525,3125,1925,7,976,250,Active,,,http://www.redfin.com/CA/San-Francisco/125-Randall-St-94131/home/1688551,San Francisco MLS,421546150,N,Y,37.7396719,-122.4262438
MLS Listing,,Condo/Co-op,25 Guerrero St #302,San Francisco,CA,94103,649000,1,1.0,San Francisco,630,2000,1928,7,1030,477,Active,,,http://www.redfin.com/CA/San-Francisco/25-Guerrero-St-94103/unit-302/home/102817178,San Francisco MLS,421546276,N,Y,37.7704607,-122.42445
MLS Listing,,Condo/Co-op,675 Tennessee St Unit A,San Francisco,CA,94027,998000,1,1.5,San Francisco,1092,2500,1997,7,914,350,Active,,,http://www.redfin.com/CA/San-Francisco/675-Tennessee-St-94107/unit-A/home/12396290,San Francisco MLS,421545991,N,Y,37.7634347,-122.3894041
MLS Listing,,Single Family Residential,3931 19th St,San Francisco,CA,94114,2995000,3,3.0,San Francisco,,2848,,7,,,Active,,,http://www.redfin.com/CA/San-Francisco/3931-19th-St-94114/home/2013999,San Francisco MLS,421546005,N,Y,37.7593231,-122.4313174
MLS Listing,,Single Family Residential,3929 19th St,San Francisco,CA,94114,3495000,6,4.5,San Francisco,,2848,,7,,,Active,,,http://www.redfin.com/CA/San-Francisco/3929-19th-St-94114/home/1848706,San Francisco MLS,421545993,N,Y,37.7592108,-122.4311305
MLS Listing,,Single Family Residential,210 Monterey Blvd,San Francisco,CA,94131,995000,2,1.0,San Francisco,743,2495,1940,7,1339,,Active,,,http://www.redfin.com/CA/San-Francisco/210-Monterey-Blvd-94131/home/2011976,San Francisco MLS,421543679,N,Y,37.7318737,-122.440077
MLS Listing,,Single Family Residential,3030 Anza St,San Francisco,CA,94121,1499000,4,3.0,San Francisco,2084,2435,1914,7,719,,Active,,,http://www.redfin.com/CA/San-Francisco/3030-Anza-St-94121/home/614293,San Francisco MLS,421546101,N,Y,37.7785392,-122.4808884
MLS Listing,,Condo/Co-op,8 Cottage Row,San Francisco,CA,94115,799000,2,1.0,San Francisco,700,2240,1885,7,1141,350,Active,,,http://www.redfin.com/CA/San-Francisco/8-Cottage-Row-94115/home/1401555,San Francisco MLS,421545231,N,Y,37.786977,-122.4322792
MLS Listing,,Condo/Co-op,1335 Willard St,San Francisco,CA,94117,1199000,2,1.0,San Francisco,1073,2465,1922,7,1117,400,Active,,,http://www.redfin.com/CA/San-Francisco/1335-Willard-St-94117/home/1977855,San Francisco MLS,421533681,N,Y,37.764672,-122.454584
MLS Listing,,Single Family Residential,2401 Green St,San Francisco,CA,94123,4500000,4,3.5,San Francisco,2930,1746,1924,7,1536,,Active,,,http://www.redfin.com/CA/San-Francisco/2401-Green-St-94123/home/1952992,San Francisco MLS,421544669,N,Y,37.7955938,-122.43876
MLS Listing,,Condo/Co-op,195 7th St #402,San Francisco,CA,94103,399000,0,1.0,San Francisco,,4500,1991,7,,370,Active,,,http://www.redfin.com/CA/San-Francisco/195-7th-St-94103/unit-402/home/955611,San Francisco MLS,421545271,N,Y,37.7783013,-122.4094944
MLS Listing,,Multi-Family (2-4 Unit),1452 - 1454 Clement St,San Francisco,CA,94118,1999000,4,3.5,San Francisco,3735,2606,1915,7,535,,Active,,,http://www.redfin.com/CA/San-Francisco/1452-Clement-St-94118/home/1000723,San Francisco MLS,421545737,N,Y,37.782723,-122.4750034
MLS Listing,,Single Family Residential,2581 21st Ave,San Francisco,CA,94116,1498000,3,2.0,San Francisco,2241,3600,1926,7,668,,Active,,,http://www.redfin.com/CA/San-Francisco/2581-21st-Ave-94116/home/964153,San Francisco MLS,421546156,N,Y,37.7396082,-122.4778794
MLS Listing,,Condo/Co-op,701 Hampshire St #6,San Francisco,CA,94110,495000,0,1.0,San Francisco,,,1960,7,,340,Active,,,http://www.redfin.com/CA/San-Francisco/701-Hampshire-St-94110/unit-6/home/175094592,San Francisco MLS,421546158,N,Y,37.7603979,-122.4078827
MLS Listing,,Single Family Residential,3751 21st St,San Francisco,CA,94114,2195000,4,3.5,San Francisco,,2848,1910,7,,,Active,,,http://www.redfin.com/CA/San-Francisco/3751-21st-St-94114/home/1694880,San Francisco MLS,421542520,N,Y,37.7561226,-122.4312517
MLS Listing,,Condo/Co-op,139 South Lake Merced Hls Unit 3A,San Francisco,CA,94132,849000,2,2.0,San Francisco,1297,15266,1975,7,655,897,Active,,,http://www.redfin.com/CA/San-Francisco/139-S-Lake-Merced-Hls-94132/unit-3A/home/837758,San Francisco MLS,421546113,N,Y,37.7085685,-122.4832098
MLS Listing,,Condo/Co-op,771 Treat Ave #2,San Francisco,CA,94110,1295000,2,2.0,San Francisco,,3063,1900,7,,175,Active,,,http://www.redfin.com/CA/San-Francisco/771-Treat-Ave-94110/unit-2/home/40625906,San Francisco MLS,421546111,N,Y,37.7579263,-122.413319
MLS Listing,,Condo/Co-op,1650 Jackson St #406,SAN FRANCISCO,CA,94109,799000,1,1.0,SAN FRANCISCO,875,14631,1991,7,913,888,Active,,,http://www.redfin.com/CA/San-Francisco/1650-Jackson-St-94109/unit-406/home/1322898,MLSListings,ML81842544,N,Y,37.7942661,-122.42226
MLS Listing,,Single Family Residential,2130 Filbert St,San Francisco,CA,94123,4750000,4,3.5,San Francisco,,1560,1900,7,,,Active,,,http://www.redfin.com/CA/San-Francisco/2130-Filbert-St-94123/home/1459507,San Francisco MLS,421545167,N,Y,37.7983301,-122.4346421
MLS Listing,,Condo/Co-op,12 Auburn St,San Francisco,CA,94133,1099000,2,1.0,San Francisco,,,1926,7,,,Active,,,http://www.redfin.com/CA/San-Francisco/12-Auburn-St-94133/home/1754773,San Francisco MLS,421544890,N,Y,37.7954708,-122.4123051
MLS Listing,,Condo/Co-op,20 Parkridge Dr #12,San Francisco,CA,94131,799000,2,1.0,San Francisco,,8180,1967,7,,398,Active,,,http://www.redfin.com/CA/San-Francisco/20-Parkridge-Dr-94131/unit-12/home/40265866,San Francisco MLS,421545412,N,Y,37.7512222,-122.445551
MLS Listing,,Single Family Residential,280 Dalewood Way,San Francisco,CA,94127,1695000,3,2.5,San Francisco,1941,3297,1966,7,873,,Active,,,http://www.redfin.com/CA/San-Francisco/280-Dalewood-Way-94127/home/1750526,San Francisco MLS,421543082,N,Y,37.7385186,-122.4586882
MLS Listing,,Single Family Residential,2110 Scott St,San Francisco,CA,94115,8750000,6,5.5,San Francisco,7148,3634,1900,7,1224,,Active,,,http://www.redfin.com/CA/San-Francisco/2110-Scott-St-94115/home/1153551,San Francisco MLS,421541124,N,Y,37.7897503,-122.4387369
MLS Listing,,Single Family Residential,133 Winfield St,San Francisco,CA,94110,1389000,4,2.0,San Francisco,1729,1750,1900,7,803,,Active,,,http://www.redfin.com/CA/San-Francisco/133-Winfield-St-94110/home/1955786,San Francisco MLS,421524072,N,Y,37.7428081,-122.4182439
MLS Listing,,Condo/Co-op,3228 Divisadero St,San Francisco,CA,94123,3295000,3,2.5,San Francisco,,,2021,7,,863,Active,,,http://www.redfin.com/CA/San-Francisco/3228-Divisadero-St-94123/home/174553241,San Francisco MLS,421545658,N,Y,37.7995659,-122.4425597
MLS Listing,,Condo/Co-op,433 26th Ave,SAN FRANCISCO,CA,94121,1698000,4,3.0,SAN FRANCISCO,2158,3372,2010,7,787,130,Active,,,http://www.redfin.com/CA/San-Francisco/433-26th-Ave-94121/home/40023002,MLSListings,ML81842518,N,Y,37.7813354,-122.4861429
MLS Listing,,Condo/Co-op,3120 23rd St,San Francisco,CA,94110,2295000,3,3.5,San Francisco,,1624,1900,7,,,Active,,,http://www.redfin.com/CA/San-Francisco/3120-23rd-St-94110/home/721615,San Francisco MLS,421545776,N,Y,37.7542443,-122.4147679
MLS Listing,,Condo/Co-op,3122 23rd St,San Francisco,CA,94110,1995000,3,2.5,San Francisco,,1624,1900,7,,,Active,,,http://www.redfin.com/CA/San-Francisco/3122-23rd-St-94110/home/52266796,San Francisco MLS,421545825,N,Y,37.7542455,-122.4147355
MLS Listing,,Single Family Residential,3927 19th St,San Francisco,CA,94114,2995000,4,3.5,San Francisco,,2848,,7,,,Active,,,http://www.redfin.com/CA/San-Francisco/3927-19th-St-94114/home/711988,San Francisco MLS,421545520,N,Y,37.7592631,-122.4310315
MLS Listing,,Condo/Co-op,126 Noe St,San Francisco,CA,94114,1695000,3,1.0,San Francisco,,1821,1887,7,,350,Active,,,http://www.redfin.com/CA/San-Francisco/126-Noe-St-94114/home/12277607,San Francisco MLS,421545950,N,Y,37.767014,-122.433675
MLS Listing,,Condo/Co-op,173 Beaver St,San Francisco,CA,94114,2995000,3,3.0,San Francisco,,3212,2006,7,,500,Active,,,http://www.redfin.com/CA/San-Francisco/173-Beaver-St-94114/home/12402547,San Francisco MLS,421545107,N,Y,37.7653275,-122.4369083
MLS Listing,,Condo/Co-op,3638 17th St #2,San Francisco,CA,94114,795000,1,1.0,San Francisco,772,1375,1908,7,1030,333,Active,,,http://www.redfin.com/CA/San-Francisco/3638-17th-St-94114/unit-2/home/1356514,San Francisco MLS,421545486,N,Y,37.7631498,-122.4271134
MLS Listing,,Condo/Co-op,190 7th St #5,San Francisco,CA,94103,698000,1,1.5,San Francisco,939,6768,1999,7,743,481,Active,,,http://www.redfin.com/CA/San-Francisco/190-7th-St-94103/unit-5/home/12395739,San Francisco MLS,421543581,N,Y,37.7780044,-122.4097826
MLS Listing,,Condo/Co-op,400 Bristol Ct #312,San Francisco,CA,94130,1693000,1,1.0,San Francisco,1066,,,7,1588,1327,Active,,,http://www.redfin.com/CA/San-Francisco/1-Yerba-Buena-Rd-94130/unit-312/home/175089504,San Francisco MLS,421545924,N,Y,37.8108709,-122.3668348
MLS Listing,,Single Family Residential,62 Rockwood Ct,San Francisco,CA,94127,1395000,2,2.0,San Francisco,,2090,1941,7,,,Active,,,http://www.redfin.com/CA/San-Francisco/62-Rockwood-Ct-94127/home/684191,San Francisco MLS,421544046,N,Y,37.7431879,-122.457671
MLS Listing,,Single Family Residential,723 44th Ave,San Francisco,CA,94121,1495000,2,2.0,San Francisco,1687,3598,1915,7,886,,Active,,,http://www.redfin.com/CA/San-Francisco/723-44th-Ave-94121/home/1660276,San Francisco MLS,421545699,N,Y,37.7750011,-122.505029
MLS Listing,,Condo/Co-op,631 Ofarrell St #1210,San Francisco,CA,94109,479000,0,1.0,San Francisco,,,,7,,726,Active,,,http://www.redfin.com/CA/San-Francisco/631-O-Farrell-St-94109/unit-1210/home/1707685,San Francisco MLS,421542428,N,Y,37.7852037,-122.4151808
MLS Listing,,Multi-Family (2-4 Unit),190 - 192 Albion St,San Francisco,CA,94110,2500000,5,2.0,San Francisco,3180,1790,1907,7,786,,Active,,,http://www.redfin.com/CA/San-Francisco/190-Albion-St-94110/home/1281341,San Francisco MLS,421545255,N,Y,37.7634914,-122.4229317
MLS Listing,,Multi-Family (2-4 Unit),13 - A-B Surrey St,San Francisco,CA,94131,1495000,2,2.0,San Francisco,1700,3571,1910,7,879,,Active,,,http://www.redfin.com/CA/San-Francisco/13-A-B-Surrey-St-94131/home/175078454,San Francisco MLS,421543892,N,Y,37.7357079,-122.4354094
MLS Listing,,Condo/Co-op,555 4th St #511,San Francisco,CA,94107,788000,1,1.0,San Francisco,693,63237,2007,7,1137,651,Active,,,http://www.redfin.com/CA/San-Francisco/555-4th-St-94107/unit-511/home/22889417,San Francisco MLS,421543065,N,Y,37.7793967,-122.3967727
MLS Listing,,Condo/Co-op,201 Folsom St Unit 41B,San Francisco,CA,94105,6800000,3,3.0,San Francisco,5223,75406,2016,8,1302,3954,Active,,,http://www.redfin.com/CA/San-Francisco/201-Folsom-St-94105/unit-41B/home/144064174,San Francisco MLS,421544878,N,Y,37.7887059,-122.3922385
MLS Listing,,Single Family Residential,2658 22nd St,San Francisco,CA,94110,2480000,3,2.0,San Francisco,1902,2438,1895,8,1304,,Active,,,http://www.redfin.com/CA/San-Francisco/2658-22nd-St-94110/home/984060,San Francisco MLS,421540992,N,Y,37.7563109,-122.407943
MLS Listing,,Multi-Family (2-4 Unit),1383 - 1385 37th Ave,San Francisco,CA,94122,1299000,4,2.0,San Francisco,2250,2063,1945,8,577,,Active,,,http://www.redfin.com/CA/San-Francisco/1383-37th-Ave-94122/home/1219035,San Francisco MLS,421545774,N,Y,37.7611873,-122.496571
MLS Listing,,Condo/Co-op,3053 California St #3053,San Francisco,CA,94115,2095000,3,3.5,San Francisco,2186,3436,1900,8,958,478,Active,,,http://www.redfin.com/CA/San-Francisco/3053-California-St-94115/unit-3053/home/175077711,San Francisco MLS,421541912,N,Y,37.7874616,-122.4446311
MLS Listing,,Condo/Co-op,701 Hampshire St #2,San Francisco,CA,94110,619000,1,1.0,San Francisco,609,,1961,8,1016,432,Active,,,http://www.redfin.com/CA/San-Francisco/701-Hampshire-St-94110/unit-2/home/175077394,San Francisco MLS,421545692,N,Y,37.7603979,-122.4078827
MLS Listing,,Single Family Residential,108 Turquoise Way,San Francisco,CA,94131,3995000,4,3.0,San Francisco,3018,6638,1962,8,1324,,Active,,,http://www.redfin.com/CA/San-Francisco/108-Turquoise-Way-94131/home/1891384,San Francisco MLS,421545026,N,Y,37.7431247,-122.4440256
MLS Listing,,Condo/Co-op,2510 Franklin St,San Francisco,CA,94123,1389000,2,1.0,San Francisco,,1702,1951,8,,,Active,,,http://www.redfin.com/CA/San-Francisco/2510-Franklin-St-94123/home/1770757,San Francisco MLS,421539509,N,Y,37.797664,-122.425249
MLS Listing,,Single Family Residential,401 Sloat Blvd,San Francisco,CA,94132,1488000,3,2.0,San Francisco,2228,5153,1931,8,668,,Active,,,http://www.redfin.com/CA/San-Francisco/401-Sloat-Blvd-94132/home/1390313,San Francisco MLS,421545534,N,Y,37.7343839,-122.4764664
MLS Listing,,Condo/Co-op,223 Page St,San Francisco,CA,94102,1195000,3,1.5,San Francisco,1505,1673,1879,8,794,,Active,,,http://www.redfin.com/CA/San-Francisco/223-Page-St-94102/home/17306374,San Francisco MLS,421545216,N,Y,37.7735956,-122.4245484
MLS Listing,,Single Family Residential,220 Grand View Ave,San Francisco,CA,94114,1899000,3,2.0,San Francisco,1348,2748,1955,8,1409,,Active,,,http://www.redfin.com/CA/San-Francisco/220-Grand-View-Ave-94131/home/1112086,San Francisco MLS,421544524,N,Y,37.7546504,-122.4409623
MLS Listing,,Single Family Residential,1878 11th Ave,San Francisco,CA,94122,1599900,2,2.0,San Francisco,1916,2996,1940,8,,,Active,,,http://www.redfin.com/CA/San-Francisco/1878-11th-Ave-94122/home/1081304,MetroList,421544913,N,Y,37.7531997,-122.4675003
MLS Listing,,Single Family Residential,15 Walnut St,San Francisco,CA,94118,7500000,5,4.5,San Francisco,4985,3998,1908,8,1505,,Active,,,http://www.redfin.com/CA/San-Francisco/15-Walnut-St-94118/home/1780266,San Francisco MLS,421544662,N,Y,37.7913127,-122.4495105
MLS Listing,,Single Family Residential,34 Tamalpais Ter,San Francisco,CA,94118,1095000,3,2.0,San Francisco,1825,2495,1937,8,600,,Active,,,http://www.redfin.com/CA/San-Francisco/34-Tamalpais-Ter-94118/home/1452104,San Francisco MLS,421545478,N,Y,37.7779066,-122.4485152
MLS Listing,,Single Family Residential,3326 Wawona St,San Francisco,CA,94116,1475000,3,3.0,San Francisco,1650,2495,1950,8,894,,Active,,,http://www.redfin.com/CA/San-Francisco/3326-Wawona-St-94116/home/664009,San Francisco MLS,421544770,N,Y,37.7364523,-122.502668
MLS Listing,,Condo/Co-op,1998 Broadway #706,San Francisco,CA,94109,1595000,2,2.0,San Francisco,1170,15195,1964,8,1363,1344,Active,,,http://www.redfin.com/CA/San-Francisco/1998-Broadway-94109/unit-706/home/1491374,San Francisco MLS,421545134,N,Y,37.7953251,-122.4298254
MLS Listing,,Single Family Residential,2034 18th Ave,San Francisco,CA,94116,1395000,2,1.0,San Francisco,1400,3000,1937,8,996,,Active,,,http://www.redfin.com/CA/San-Francisco/2034-18th-Ave-94116/home/1938340,San Francisco MLS,421542252,N,Y,37.7498843,-122.4748192
MLS Listing,,Condo/Co-op,401 Harrison St Unit 40B,San Francisco,CA,94105,2450000,2,2.0,San Francisco,1419,56023,2014,8,1727,1391,Active,,,http://www.redfin.com/CA/San-Francisco/401-Harrison-St-94105/unit-40B/home/144064319,San Francisco MLS,421540285,N,Y,37.7864989,-122.3921487
MLS Listing,,Condo/Co-op,816 Scott St,San Francisco,CA,94117,2495000,3,2.0,San Francisco,1600,3458,1900,8,1559,250,Active,,,http://www.redfin.com/CA/San-Francisco/816-Scott-St-94117/home/144063605,San Francisco MLS,421545194,N,Y,37.7775824,-122.4362461
MLS Listing,,Condo/Co-op,1461 Hayes St,San Francisco,CA,94117,1495000,2,1.0,San Francisco,1460,3438,1890,8,1024,350,Active,,,http://www.redfin.com/CA/San-Francisco/1461-Hayes-St-94117/home/1643423,San Francisco MLS,421545075,N,Y,37.77437,-122.440413
MLS Listing,,Single Family Residential,1500 Burrows St,San Francisco,CA,94134,1039000,2,1.0,San Francisco,1264,1751,1944,8,822,,Active,,,http://www.redfin.com/CA/San-Francisco/1500-Burrows-St-94134/home/1752333,San Francisco MLS,421545170,N,Y,37.7252896,-122.4181755
MLS Listing,,Condo/Co-op,60 Ora Way Unit H102,San Francisco,CA,94131,412932,1,1.0,San Francisco,676,6813,1975,8,611,652,Active,,,http://www.redfin.com/CA/San-Francisco/60-Ora-Way-94131/unit-H102/home/1115527,San Francisco MLS,421544826,N,Y,37.7410286,-122.4380095
MLS Listing,,Condo/Co-op,725 Pine St #202,San Francisco,CA,94108,485000,0,1.0,San Francisco,313,5000,1920,8,1550,616,Active,,,http://www.redfin.com/CA/San-Francisco/725-Pine-St-94108/unit-202/home/17306114,San Francisco MLS,421535259,N,Y,37.7911451,-122.4077504
MLS Listing,,Condo/Co-op,550 Davis St #49,San Francisco,CA,94111,1769000,3,2.0,San Francisco,1471,,1981,8,1203,1027,Active,,,http://www.redfin.com/CA/San-Francisco/550-Davis-St-94111/unit-49/home/1442238,San Francisco MLS,421540323,N,Y,37.797573,-122.3982752
MLS Listing,,Single Family Residential,383 Crescent Ave,San Francisco,CA,94110,1175000,3,1.0,San Francisco,1000,2495,1913,9,1175,,Active,,,http://www.redfin.com/CA/San-Francisco/383-Crescent-Ave-94110/home/1576354,San Francisco MLS,421545367,N,Y,37.7350603,-122.4171498
MLS Listing,,Condo/Co-op,3620 Cesar Chavez St #303,San Francisco,CA,94110,1199000,2,2.0,San Francisco,1038,,2020,9,1155,549,Active,,,http://www.redfin.com/CA/San-Francisco/3620-Cesar-Chavez-94110/unit-303/home/174204887,San Francisco MLS,421545338,N,Y,37.7483761,-122.4219282
MLS Listing,,Condo/Co-op,150 Lombard St #707,San Francisco,CA,94111,1200000,2,2.0,San Francisco,1147,,1975,9,1046,1122,Active,,,http://www.redfin.com/CA/San-Francisco/150-156-Lombard-St-94111/unit-707/home/114069505,San Francisco MLS,421544653,N,Y,37.8044502,-122.4041782
MLS Listing,,Condo/Co-op,1054 Cole St,San Francisco,CA,94117,1795000,3,2.0,San Francisco,1625,2750,1909,9,1105,333,Active,,,http://www.redfin.com/CA/San-Francisco/1054-Cole-St-94117/home/1998344,San Francisco MLS,421537572,N,Y,37.764257,-122.449351
MLS Listing,,Multi-Family (2-4 Unit),1854 - 1856 Mcallister St,San Francisco,CA,94115,3225000,10,,San Francisco,2846,3438,1900,9,1133,,Active,,,http://www.redfin.com/CA/San-Francisco/1854-McAllister-St-94115/home/145165107,San Francisco MLS,421545239,N,Y,37.777518,-122.44279
MLS Listing,,Single Family Residential,1867 46th Ave,San Francisco,CA,94122,1250000,2,1.0,San Francisco,787,2996,1946,9,1588,,Active,,,http://www.redfin.com/CA/San-Francisco/1867-46th-Ave-94122/home/1949258,San Francisco MLS,421542275,N,Y,37.7517079,-122.5055153
MLS Listing,,Condo/Co-op,279 Laidley St,San Francisco,CA,94131,1395000,2,1.0,San Francisco,1303,,1912,9,1071,390,Active,,,http://www.redfin.com/CA/San-Francisco/279-Laidley-St-94131/home/28938913,San Francisco MLS,421526473,N,Y,37.7377751,-122.4280591
MLS Listing,,Multi-Family (2-4 Unit),1150 Fell St,San Francisco,CA,94117,4375000,11,,San Francisco,3950,3438,1900,9,1108,,Active,,,http://www.redfin.com/CA/San-Francisco/1150-Fell-St-94117/home/1244687,San Francisco MLS,421545195,N,Y,37.774445,-122.436842
MLS Listing,,Single Family Residential,1258 40th Ave,San Francisco,CA,94122,1095000,2,1.0,San Francisco,1425,3000,1926,9,768,,Active,,,http://www.redfin.com/CA/San-Francisco/1258-40th-Ave-94122/home/2007931,San Francisco MLS,421542801,N,Y,37.7633422,-122.4994839
MLS Listing,,Single Family Residential,2138 16th Ave,San Francisco,CA,94116,1595000,3,2.5,San Francisco,1700,3600,1938,9,938,,Active,,,http://www.redfin.com/CA/San-Francisco/2138-16th-Ave-94116/home/1394583,San Francisco MLS,421545122,N,Y,37.7480575,-122.4724422
MLS Listing,,Condo/Co-op,1495 Mcallister St,San Francisco,CA,94115,1349000,3,1.5,San Francisco,1508,,,9,895,380,Active,,,http://www.redfin.com/CA/San-Francisco/1495-McAllister-St-94115/home/1288595,San Francisco MLS,421544640,N,Y,37.7777984,-122.4364621
MLS Listing,,Multi-Family (5+ Unit),1633 - 1639 Washington St,San Francisco,CA,94109,6800000,8,1.0,San Francisco,10869,4597,1907,9,626,,Active,,,http://www.redfin.com/CA/San-Francisco/1633-Washington-St-94109/home/2033130,San Francisco MLS,421538755,N,Y,37.7931243,-122.4201833
MLS Listing,,Condo/Co-op,640 Davis St #46,San Francisco,CA,94111,1598000,2,2.0,San Francisco,1471,93129,1983,9,1086,1343,Active,,,http://www.redfin.com/CA/San-Francisco/640-Davis-St-94111/unit-46/home/1144590,San Francisco MLS,421542256,N,Y,37.7984389,-122.3983908
MLS Listing,,Multi-Family (5+ Unit),103 - 111 Carl St,San Francisco,CA,94117,8750000,6,1.0,San Francisco,12450,4996,1904,9,703,,Active,,,http://www.redfin.com/CA/San-Francisco/103-Carl-St-94117/home/173090009,San Francisco MLS,421538847,N,Y,37.7656435,-122.4501911
MLS Listing,,Single Family Residential,2614 18th Ave,San Francisco,CA,94116,1495000,3,2.0,San Francisco,1696,2221,1935,9,881,,Active,,,http://www.redfin.com/CA/San-Francisco/2614-18th-Ave-94116/home/1965168,San Francisco MLS,421544324,N,Y,37.7390353,-122.4740778
MLS Listing,,Condo/Co-op,2148 Union St #1,San Francisco,CA,94123,1599000,2,2.0,San Francisco,,,2020,9,,249,Active,,,http://www.redfin.com/CA/San-Francisco/2148-Union-St-94123/unit-1/home/175055436,San Francisco MLS,511529,N,Y,37.7973787,-122.4347049
MLS Listing,,Single Family Residential,55 Southwood Dr,SAN FRANCISCO,CA,94112,1890000,3,1.0,SAN FRANCISCO,1549,3898,1919,9,1220,,Active,,,http://www.redfin.com/CA/San-Francisco/55-Southwood-Dr-94112/home/1387308,MLSListings,ML81842077,N,Y,37.7250579,-122.4575383
MLS Listing,,Condo/Co-op,310 Townsend St #206,San Francisco,CA,94107,699000,1,1.0,San Francisco,689,16600,2006,9,1015,490,Active,,,http://www.redfin.com/CA/San-Francisco/310-Townsend-St-94107/unit-206/home/17304716,San Francisco MLS,421543971,N,Y,37.7769445,-122.3956663
MLS Listing,,Condo/Co-op,735 Geary St #404,San Francisco,CA,94131,699000,1,1.0,San Francisco,836,6703,1922,10,836,535,Active,,,http://www.redfin.com/CA/San-Francisco/735-Geary-St-94109/unit-404/home/40082129,San Francisco MLS,421545000,N,Y,37.7862505,-122.4154684
MLS Listing,,Condo/Co-op,744 Union St #6,San Francisco,CA,94133,900000,2,1.0,San Francisco,,3023,1908,10,,321,Active,,,http://www.redfin.com/CA/San-Francisco/744-Union-St-94133/unit-6/home/175052002,San Francisco MLS,421545012,N,Y,37.8004684,-122.4117054
MLS Listing,,Condo/Co-op,400 Bristol Ct #301,San Francisco,CA,94130,2883000,2,2.5,San Francisco,1909,,,10,1510,1424,Active,,,http://www.redfin.com/CA/San-Francisco/1-Yerba-Buena-Rd-94130/unit-301/home/175051698,San Francisco MLS,421544983,N,Y,37.8108709,-122.3668348
MLS Listing,,Condo/Co-op,950 Tennessee St #125,San Francisco,CA,94107,1755000,2,2.0,San Francisco,1419,,2020,10,1237,764,Active,,,http://www.redfin.com/CA/San-Francisco/950-Tennessee-St-94107/unit-125/home/175051409,San Francisco MLS,421544958,N,Y,37.7596747,-122.3898245
MLS Listing,,Condo/Co-op,950 Tennessee St #324,San Francisco,CA,94107,1206000,1,1.0,San Francisco,885,,2020,10,1363,577,Active,,,http://www.redfin.com/CA/San-Francisco/950-Tennessee-St-94107/unit-324/home/174785326,San Francisco MLS,421544951,N,Y,37.7596747,-122.3898245
MLS Listing,,Condo/Co-op,950 Tennessee St #323,San Francisco,CA,94107,629000,0,1.0,San Francisco,421,,2020,10,1494,435,Active,,,http://www.redfin.com/CA/San-Francisco/950-Tennessee-St-94107/unit-323/home/169790281,San Francisco MLS,421544938,N,Y,37.7596747,-122.3898245
MLS Listing,,Single Family Residential,480 Kansas St,San Francisco,CA,94107,2099000,3,2.0,San Francisco,,2500,1930,10,,,Active,,,http://www.redfin.com/CA/San-Francisco/480-Kansas-St-94107/home/729102,San Francisco MLS,421544915,N,Y,37.7637961,-122.4037425
MLS Listing,,Condo/Co-op,1177 California St #622,San Francisco,CA,94108,649000,0,1.0,San Francisco,535,,1978,10,1213,1019,Active,,,http://www.redfin.com/CA/San-Francisco/1177-California-St-94108/unit-622/home/998555,San Francisco MLS,421544673,N,Y,37.7913209,-122.4137552
MLS Listing,,Condo/Co-op,950 Tennessee St #212,San Francisco,CA,94107,2043000,3,2.5,San Francisco,1414,,2020,10,1445,764,Active,,,http://www.redfin.com/CA/San-Francisco/950-Tennessee-St-94107/unit-212/home/175051133,San Francisco MLS,421544910,N,Y,37.7596747,-122.3898245
MLS Listing,,Single Family Residential,2440 14th Ave,San Francisco,CA,94116,2395000,4,2.5,San Francisco,3053,3600,1929,10,784,,Active,,,http://www.redfin.com/CA/San-Francisco/2440-14th-Ave-94116/home/661126,San Francisco MLS,421539225,N,Y,37.7425443,-122.4698386
MLS Listing,,Condo/Co-op,950 Tennessee St #119,San Francisco,CA,94107,645000,0,1.0,San Francisco,472,,2020,10,1367,436,Active,,,http://www.redfin.com/CA/San-Francisco/950-Tennessee-St-94107/unit-119/home/174673039,San Francisco MLS,421544900,N,Y,37.7596747,-122.3898245
MLS Listing,,Condo/Co-op,765 Market St Unit 33G,San Francisco,CA,94103,3150000,2,2.5,San Francisco,1761,60150,2001,10,1789,2744,Active,,,http://www.redfin.com/CA/San-Francisco/765-Market-St-94103/unit-33G/home/867939,San Francisco MLS,421539780,N,Y,37.786097,-122.4041629
MLS Listing,,Single Family Residential,6038 - 6040 Geary Blvd,San Francisco,CA,94121,1395000,4,1.5,San Francisco,3340,2495,1904,10,418,,Active,,,http://www.redfin.com/CA/San-Francisco/6038-Geary-Blvd-94121/home/173439047,San Francisco MLS,421538934,N,Y,37.7804168,-122.4843958
MLS Listing,,Single Family Residential,2387 Bay St,San Francisco,CA,94123,2495000,3,2.0,San Francisco,1890,1459,1954,10,1320,,Active,,,http://www.redfin.com/CA/San-Francisco/2387-Bay-St-94123/home/1288834,San Francisco MLS,421544665,N,Y,37.8013235,-122.4462069
MLS Listing,,Single Family Residential,825 Duncan St,San Francisco,CA,94131,2900000,4,3.0,San Francisco,1975,3645,1956,10,1468,,Active,,,http://www.redfin.com/CA/San-Francisco/825-Duncan-St-94131/home/1497403,San Francisco MLS,421544586,N,Y,37.7452658,-122.438637
MLS Listing,,Condo/Co-op,28 Parker Ave #302,San Francisco,CA,94118,1100000,2,2.0,San Francisco,,5510,1929,10,,555,Active,,,http://www.redfin.com/CA/San-Francisco/28-Parker-Ave-94118/unit-302/home/40260250,San Francisco MLS,421542518,N,Y,37.7856589,-122.454398
MLS Listing,,Vacant Land,1298 Potrero Ave,San Francisco,CA,94110,1450000,0,,San Francisco,,2674,,10,,,Active,,,http://www.redfin.com/CA/San-Francisco/1298-Potrero-Ave-94110/home/175050449,San Francisco MLS,421543727,N,Y,37.7514918,-122.4064307
MLS Listing,,Condo/Co-op,338 Potrero Ave #601,San Francisco,CA,94103,298906,1,1.0,San Francisco,671,11250,2017,10,445,634,Active,,,http://www.redfin.com/CA/San-Francisco/338-Potrero-Ave-94103/unit-601/home/125805874,San Francisco MLS,421544814,N,Y,37.7651556,-122.4077002
MLS Listing,,Condo/Co-op,1001 17th St #402,San Francisco,CA,94107,1250000,2,2.5,San Francisco,1240,9426,2016,10,1008,613,Active,,,http://www.redfin.com/CA/San-Francisco/1001-17th-St-94107/unit-402/home/104013408,San Francisco MLS,421536114,N,Y,37.7650727,-122.3940731
MLS Listing,,Condo/Co-op,57 Woodward St Unit A,San Francisco,CA,94110,719000,2,1.0,San Francisco,892,3972,1907,10,806,341,Active,,,http://www.redfin.com/CA/San-Francisco/57-Woodward-St-94103/unit-A/home/39977707,San Francisco MLS,421544783,N,Y,37.7690337,-122.4207489
MLS Listing,,Single Family Residential,209 South Hl,San Francisco,CA,94112,995000,2,1.0,San Francisco,1364,4499,1927,10,729,,Active,,,http://www.redfin.com/CA/San-Francisco/209-S-Hill-Blvd-94112/home/793588,San Francisco MLS,421542439,N,Y,37.71011,-122.4303341
MLS Listing,,Condo/Co-op,930 Pine St #301,San Francisco,CA,94108,790000,1,1.0,San Francisco,,,1973,10,,591,Active,,,http://www.redfin.com/CA/San-Francisco/930-Pine-St-94108/unit-301/home/1374165,San Francisco MLS,421544782,N,Y,37.7909799,-122.4111726
MLS Listing,,Condo/Co-op,5800 3rd St #1202,San Francisco,CA,94124,739000,2,2.0,San Francisco,1077,,2010,10,686,470,Active,,,http://www.redfin.com/CA/San-Francisco/5800-3rd-St-94124/unit-1202/home/40626094,San Francisco MLS,421542988,N,Y,37.7253452,-122.3948096
MLS Listing,,Multi-Family (5+ Unit),2261 - 2265 Market St,San Francisco,CA,94114,3395000,4,4.0,San Francisco,5967,3497,1900,10,569,,Active,,,http://www.redfin.com/CA/San-Francisco/2261-Market-St-94114/home/28890955,San Francisco MLS,421544103,N,Y,37.7647186,-122.4319401
MLS Listing,,Single Family Residential,3625 Jackson St,San Francisco,CA,94118,7995000,6,5.0,San Francisco,4260,3227,1922,10,1877,,Active,,,http://www.redfin.com/CA/San-Francisco/3625-Jackson-St-94118/home/2035999,San Francisco MLS,421539068,N,Y,37.7897346,-122.4545749
MLS Listing,,Condo/Co-op,530 Noe St #530,San Francisco,CA,94114,1200000,2,2.0,San Francisco,,,,10,,,Active,,,http://www.redfin.com/CA/San-Francisco/530-Noe-St-94114/unit-530/home/175049104,San Francisco MLS,421540638,N,Y,37.7604177,-122.4329323
MLS Listing,,Condo/Co-op,530 Noe St Unit A,San Francisco,CA,94114,850000,0,1.0,San Francisco,,,,10,,,Active,,,http://www.redfin.com/CA/San-Francisco/530-Noe-St-94114/unit-A/home/175049086,San Francisco MLS,421542116,N,Y,37.7604177,-122.4329323
MLS Listing,,Condo/Co-op,528 Noe St #528,San Francisco,CA,94114,1550000,2,2.0,San Francisco,,,,10,,,Active,,,http://www.redfin.com/CA/San-Francisco/528-Noe-St-94114/unit-528/home/175049053,San Francisco MLS,421540619,N,Y,37.7604,-122.433091
MLS Listing,,Multi-Family (2-4 Unit),46-52 Dearborn St,SAN FRANCISCO,CA,94110,1988000,8,4.0,SAN FRANCISCO,4272,3092,1907,10,465,,Active,,,http://www.redfin.com/CA/San-Francisco/46-Dearborn-St-94110/unit-52/home/1873836,MLSListings,ML81841918,N,Y,37.7624152,-122.4232316
MLS Listing,,Vacant Land,135 Wetmore St,San Francisco,CA,94108-1526,1895000,,,San Francisco,,2221,,10,,,Active,,,http://www.redfin.com/CA/San-Francisco/135-Wetmore-St-94108/home/1078059,"bridgeMLS, Bay East AOR, or Contra Costa AOR",40948179,N,Y,37.7942099,-122.4106455
MLS Listing,,Single Family Residential,3520 Fulton St,San Francisco,CA,94118,2380000,5,6.0,San Francisco,3075,1999,1924,10,774,,Active,,,http://www.redfin.com/CA/San-Francisco/3520-Fulton-St-94118/home/1100609,San Francisco MLS,421544115,N,Y,37.7734697,-122.4695678
MLS Listing,,Single Family Residential,2002 California St,San Francisco,CA,94109,4275000,4,4.0,San Francisco,2750,2231,1923,10,1555,,Active,,,http://www.redfin.com/CA/San-Francisco/2002-California-St-94109/home/568519,San Francisco MLS,421544680,N,Y,37.7899079,-122.427852
MLS Listing,,Condo/Co-op,110 Channel St #106,San Francisco,CA,94158,1515000,2,2.0,San Francisco,1196,49773,2017,10,1267,944,Active,,,http://www.redfin.com/CA/San-Francisco/110-Channel-St-94158/unit-106/home/113913223,San Francisco MLS,421544538,N,Y,37.7751436,-122.3906212
MLS Listing,,Single Family Residential,601 Laguna Honda Blvd,San Francisco,CA,94127,2195000,5,3.5,San Francisco,2864,4935,1924,11,766,,Active,,,http://www.redfin.com/CA/San-Francisco/601-Laguna-Honda-Blvd-94127/home/1014211,San Francisco MLS,421542104,N,Y,37.7458821,-122.4576267
MLS Listing,,Multi-Family (2-4 Unit),1235 18th Ave,San Francisco,CA,94122,1695000,4,4.0,San Francisco,4150,2996,1946,11,408,,Active,,,http://www.redfin.com/CA/San-Francisco/1235-18th-Ave-94122/home/1061591,San Francisco MLS,421544278,N,Y,37.7647692,-122.4764648
MLS Listing,,Single Family Residential,459 & 461 Potrero Ave,SAN FRANCISCO,CA,94110,1850000,5,3.0,SAN FRANCISCO,2592,2500,1906,11,714,,Active,,,http://www.redfin.com/CA/San-Francisco/461-Potrero-Ave-94110/home/148059455,MLSListings,ML81841885,N,Y,37.7637035,-122.4070112
MLS Listing,,Multi-Family (2-4 Unit),20 - 22 Darrell Pl,San Francisco,CA,94133,2495000,4,,San Francisco,3029,1263,1927,11,824,,Active,,,http://www.redfin.com/CA/San-Francisco/20-Darrell-Pl-94133/home/1115736,San Francisco MLS,421540137,N,Y,37.8023265,-122.4041864
MLS Listing,,Condo/Co-op,875 Vermont St #204,San Francisco,CA,94107,699000,1,1.0,San Francisco,,,1965,11,,185,Active,,,http://www.redfin.com/CA/San-Francisco/875-Vermont-St-94107/unit-204/home/1922449,San Francisco MLS,421534716,N,Y,37.7585731,-122.403654
MLS Listing,,Condo/Co-op,2922 Franklin St,San Francisco,CA,94123,3800000,3,2.5,San Francisco,2735,2187,2019,11,1389,350,Active,,,http://www.redfin.com/CA/San-Francisco/2922-Franklin-St-94123/home/172616098,San Francisco MLS,421541582,N,Y,37.8015373,-122.425995
MLS Listing,,Condo/Co-op,601 Van Ness Ave #802,SAN FRANCISCO,CA,94102,625000,1,1.0,SAN FRANCISCO,676,,1982,12,925,940,Active,,,http://www.redfin.com/CA/San-Francisco/601-Van-Ness-Ave-94102/unit-802/home/951854,MLSListings,ML81841848,N,Y,37.7813653,-122.4215253
MLS Listing,,Multi-Family (2-4 Unit),254 Roosevelt Way,San Francisco,CA,94114,2395000,6,6.0,San Francisco,5150,2500,,12,465,,Active,,,http://www.redfin.com/CA/San-Francisco/254-Roosevelt-Way-94114/home/1629257,San Francisco MLS,421544577,N,Y,37.766044,-122.440677
MLS Listing,,Single Family Residential,1286 26th Ave,San Francisco,CA,94122,1899000,3,3.0,San Francisco,2533,2375,1913,12,750,,Active,,,http://www.redfin.com/CA/San-Francisco/1286-26th-Ave-94122/home/1119115,San Francisco MLS,421543168,N,Y,37.763525,-122.4844261
MLS Listing,,Multi-Family (2-4 Unit),1270 - 1272 Hampshire St,San Francisco,CA,94110,1395000,3,1.0,San Francisco,2394,1920,1907,12,583,,Active,,,http://www.redfin.com/CA/San-Francisco/1270-Hampshire-St-94110/home/1083767,San Francisco MLS,421543567,N,Y,37.751876,-122.4074709
MLS Listing,,Condo/Co-op,355 1st St Unit S2103,San Francisco,CA,94105,949000,1,1.0,San Francisco,722,38571,2004,12,1314,839,Active,,,http://www.redfin.com/CA/San-Francisco/355-1st-St-94105/unit-S2103/home/879020,San Francisco MLS,421544549,N,Y,37.7868803,-122.3934978
MLS Listing,,Condo/Co-op,540 Delancey St #102,SAN FRANCISCO,CA,94107,800000,1,1.0,SAN FRANCISCO,926,,1890,12,864,670,Active,,,http://www.redfin.com/CA/San-Francisco/540-Delancey-St-94107/unit-102/home/1044341,MLSListings,ML81841824,N,Y,37.7842842,-122.391285
